{"0":{"County":"Aasco","State":"PR","Zipcode":610,"Name":"Anasco","Max_temp":27.36,"Min_temp":23.43,"Description":"scattered clouds","Feels_like":26.05,"Sunrise":1637750420,"Sunset":1637790643,"Lon":-67.14,"Lat":18.28},"1":{"County":"Abbeville","State":"SC","Zipcode":29620,"Name":"Abbeville","Max_temp":7.51,"Min_temp":3.21,"Description":"clear sky","Feels_like":4.28,"Sunrise":1637755880,"Sunset":1637792499,"Lon":-82.3785,"Lat":34.1819},"2":{"County":"Acadia","State":"LA","Zipcode":70516,"Name":"Branch","Max_temp":21.0,"Min_temp":18.28,"Description":"broken clouds","Feels_like":19.77,"Sunrise":1637757787,"Sunset":1637795378,"Lon":-92.3459,"Lat":30.3446},"3":{"County":"Accomack","State":"VA","Zipcode":23301,"Name":"Accomac","Max_temp":3.93,"Min_temp":0.0,"Description":"clear sky","Feels_like":1.18,"Sunrise":1637754763,"Sunset":1637790400,"Lon":-75.6803,"Lat":37.7159},"4":{"County":"Ada","State":"ID","Zipcode":83616,"Name":"Eagle","Max_temp":6.18,"Min_temp":2.09,"Description":"clear sky","Feels_like":4.21,"Sunrise":1637765500,"Sunset":1637799194,"Lon":-116.362,"Lat":43.7069},"5":{"County":"Adair","State":"IA","Zipcode":50002,"Name":"Adair","Max_temp":6.7,"Min_temp":0.12,"Description":"overcast clouds","Feels_like":-1.83,"Sunrise":1637759907,"Sunset":1637794360,"Lon":-94.6444,"Lat":41.5137},"6":{"County":"Adair","State":"KY","Zipcode":42728,"Name":"Columbia","Max_temp":10.13,"Min_temp":7.33,"Description":"overcast clouds","Feels_like":6.22,"Sunrise":1637756978,"Sunset":1637792787,"Lon":-85.2656,"Lat":37.1161},"7":{"County":"Adair","State":"MO","Zipcode":63501,"Name":"Kirksville","Max_temp":13.99,"Min_temp":10.88,"Description":"overcast clouds","Feels_like":12.19,"Sunrise":1637759199,"Sunset":1637794080,"Lon":-92.5856,"Lat":40.1908},"8":{"County":"Adair","State":"OK","Zipcode":74931,"Name":"Bunch","Max_temp":18.11,"Min_temp":16.38,"Description":"light rain","Feels_like":16.91,"Sunrise":1637759057,"Sunset":1637795267,"Lon":-94.7611,"Lat":35.6826},"9":{"County":"Adams","State":"CO","Zipcode":80019,"Name":"Aurora","Max_temp":3.11,"Min_temp":-1.83,"Description":"light snow","Feels_like":-4.29,"Sunrise":1637762044,"Sunset":1637797055,"Lon":-104.7069,"Lat":39.7656},"10":{"County":"Adams","State":"IA","Zipcode":50839,"Name":"Carbon","Max_temp":8.35,"Min_temp":2.25,"Description":"overcast clouds","Feels_like":1.99,"Sunrise":1637759874,"Sunset":1637794480,"Lon":-94.8231,"Lat":41.0487},"11":{"County":"Adams","State":"ID","Zipcode":83612,"Name":"Council","Max_temp":1.87,"Min_temp":-1.18,"Description":"few clouds","Feels_like":-1.7,"Sunrise":1637765715,"Sunset":1637799023,"Lon":-116.4518,"Lat":44.7628},"12":{"County":"Adams","State":"IL","Zipcode":62301,"Name":"Quincy","Max_temp":16.12,"Min_temp":12.79,"Description":"overcast clouds","Feels_like":13.95,"Sunrise":1637758868,"Sunset":1637793831,"Lon":-91.3763,"Lat":39.9307},"13":{"County":"Adams","State":"IN","Zipcode":46711,"Name":"Berne","Max_temp":10.33,"Min_temp":6.91,"Description":"overcast clouds","Feels_like":5.23,"Sunrise":1637757438,"Sunset":1637792168,"Lon":-84.9343,"Lat":40.6716},"14":{"County":"Adams","State":"MS","Zipcode":39120,"Name":"Natchez","Max_temp":16.3,"Min_temp":14.21,"Description":"clear sky","Feels_like":15.87,"Sunrise":1637757699,"Sunset":1637794994,"Lon":-91.3642,"Lat":31.5492},"15":{"County":"Adams","State":"ND","Zipcode":58639,"Name":"Hettinger","Max_temp":-8.15,"Min_temp":-8.69,"Description":"scattered clouds","Feels_like":-14.4,"Sunrise":1637762679,"Sunset":1637795497,"Lon":-102.7851,"Lat":46.0578},"16":{"County":"Adams","State":"NE","Zipcode":68901,"Name":"Hastings","Max_temp":2.75,"Min_temp":1.84,"Description":"overcast clouds","Feels_like":-4.81,"Sunrise":1637760657,"Sunset":1637795410,"Lon":-98.3911,"Lat":40.5877},"17":{"County":"Adams","State":"OH","Zipcode":45616,"Name":"Blue Creek","Max_temp":10.56,"Min_temp":3.72,"Description":"overcast clouds","Feels_like":4.53,"Sunrise":1637756758,"Sunset":1637792078,"Lon":-83.3302,"Lat":38.7776},"18":{"County":"Adams","State":"PA","Zipcode":17301,"Name":"Abbottstown","Max_temp":4.28,"Min_temp":-1.42,"Description":"clear sky","Feels_like":1.05,"Sunrise":1637755407,"Sunset":1637790387,"Lon":-76.9931,"Lat":39.8881},"19":{"County":"Adams","State":"WA","Zipcode":99105,"Name":"Benge","Max_temp":5.63,"Min_temp":4.09,"Description":"broken clouds","Feels_like":3.83,"Sunrise":1637766532,"Sunset":1637799026,"Lon":-118.1611,"Lat":46.8591},"20":{"County":"Adams","State":"WI","Zipcode":53910,"Name":"Adams","Max_temp":7.9,"Min_temp":4.69,"Description":"overcast clouds","Feels_like":4.67,"Sunrise":1637759159,"Sunset":1637792793,"Lon":-89.8219,"Lat":43.8967},"21":{"County":"Addison","State":"VT","Zipcode":5443,"Name":"Bristol","Max_temp":-2.36,"Min_temp":-6.55,"Description":"clear sky","Feels_like":-4.36,"Sunrise":1637755181,"Sunset":1637788730,"Lon":-73.0717,"Lat":44.146},"22":{"County":"Adjuntas","State":"PR","Zipcode":601,"Name":"Adjuntas","Max_temp":23.94,"Min_temp":20.01,"Description":"broken clouds","Feels_like":22.12,"Sunrise":1637750307,"Sunset":1637790554,"Lon":-66.72,"Lat":18.16},"23":{"County":"Aguada","State":"PR","Zipcode":602,"Name":"Aguada","Max_temp":27.16,"Min_temp":23.23,"Description":"scattered clouds","Feels_like":26.18,"Sunrise":1637750439,"Sunset":1637790643,"Lon":-67.18,"Lat":18.38},"24":{"County":"Aguadilla","State":"PR","Zipcode":603,"Name":"Aguadilla","Max_temp":26.79,"Min_temp":22.86,"Description":"scattered clouds","Feels_like":26.76,"Sunrise":1637750437,"Sunset":1637790631,"Lon":-67.15,"Lat":18.43},"25":{"County":"Aguas","State":"PR","Zipcode":703,"Name":"\"Aguas Buenas\"","Max_temp":25.52,"Min_temp":22.34,"Description":"broken clouds","Feels_like":24.76,"Sunrise":1637750167,"Sunset":1637790397,"Lon":-66.1,"Lat":18.25},"26":{"County":"Aibonito","State":"PR","Zipcode":705,"Name":"Aibonito","Max_temp":22.85,"Min_temp":19.5,"Description":"broken clouds","Feels_like":21.75,"Sunrise":1637750194,"Sunset":1637790446,"Lon":-66.26,"Lat":18.14},"27":{"County":"Aiken","State":"SC","Zipcode":29105,"Name":"Monetta","Max_temp":6.8,"Min_temp":3.0,"Description":"clear sky","Feels_like":3.44,"Sunrise":1637755642,"Sunset":1637792361,"Lon":-81.5956,"Lat":33.8084},"28":{"County":"Aitkin","State":"MN","Zipcode":55748,"Name":"Hill City","Max_temp":-2.25,"Min_temp":-7.06,"Description":"overcast clouds","Feels_like":-12.13,"Sunrise":1637760660,"Sunset":1637793106,"Lon":-93.5994,"Lat":46.9968},"29":{"County":"Alachua","State":"FL","Zipcode":32601,"Name":"Gainesville","Max_temp":15.42,"Min_temp":12.56,"Description":"clear sky","Feels_like":13.12,"Sunrise":1637755296,"Sunset":1637793057,"Lon":-82.325,"Lat":29.6489},"30":{"County":"Alamance","State":"NC","Zipcode":27201,"Name":"Alamance","Max_temp":5.73,"Min_temp":0.14,"Description":"clear sky","Feels_like":3.07,"Sunrise":1637755436,"Sunset":1637791554,"Lon":-79.4856,"Lat":36.0318},"31":{"County":"Alameda","State":"CA","Zipcode":94501,"Name":"Alameda","Max_temp":19.4,"Min_temp":14.42,"Description":"broken clouds","Feels_like":15.73,"Sunrise":1637765959,"Sunset":1637801569,"Lon":-122.2648,"Lat":37.7706},"32":{"County":"Alamosa","State":"CO","Zipcode":81101,"Name":"Alamosa","Max_temp":3.99,"Min_temp":1.73,"Description":"overcast clouds","Feels_like":-0.86,"Sunrise":1637761980,"Sunset":1637797681,"Lon":-105.8786,"Lat":37.4703},"33":{"County":"Albany","State":"NY","Zipcode":12007,"Name":"Alcove","Max_temp":1.22,"Min_temp":-3.81,"Description":"broken clouds","Feels_like":-2.2,"Sunrise":1637755089,"Sunset":1637789232,"Lon":-73.9277,"Lat":42.4561},"34":{"County":"Albany","State":"WY","Zipcode":82051,"Name":"Bosler","Max_temp":-3.81,"Min_temp":-4.49,"Description":"broken clouds","Feels_like":-10.93,"Sunrise":1637762551,"Sunset":1637796982,"Lon":-105.6112,"Lat":41.5735},"35":{"County":"Albemarle","State":"VA","Zipcode":22901,"Name":"Charlottesville","Max_temp":5.72,"Min_temp":-0.1,"Description":"broken clouds","Feels_like":2.04,"Sunrise":1637755510,"Sunset":1637791036,"Lon":-78.5611,"Lat":38.0936},"36":{"County":"Alcona","State":"MI","Zipcode":48705,"Name":"Barton City","Max_temp":8.03,"Min_temp":6.22,"Description":"overcast clouds","Feels_like":3.51,"Sunrise":1637757812,"Sunset":1637791153,"Lon":-83.5994,"Lat":44.702},"37":{"County":"Alcorn","State":"MS","Zipcode":38834,"Name":"Corinth","Max_temp":13.83,"Min_temp":9.42,"Description":"clear sky","Feels_like":9.76,"Sunrise":1637757465,"Sunset":1637793897,"Lon":-88.5916,"Lat":34.8759},"38":{"County":"Aleutians","State":"AK","Zipcode":99553,"Name":"Akutan","Max_temp":-2.56,"Min_temp":-2.56,"Description":"overcast clouds","Feels_like":-9.56,"Sunrise":1637779744,"Sunset":1637808678,"Lon":-165.7854,"Lat":54.143},"39":{"County":"Aleutians","State":"AK","Zipcode":99546,"Name":"Adak","Max_temp":0.93,"Min_temp":0.93,"Description":"light snow","Feels_like":-0.76,"Sunrise":1637781733,"Sunset":1637811909,"Lon":-176.6581,"Lat":51.88},"40":{"County":"Alexander","State":"IL","Zipcode":62914,"Name":"Cairo","Max_temp":15.01,"Min_temp":13.19,"Description":"overcast clouds","Feels_like":12.56,"Sunrise":1637757904,"Sunset":1637793741,"Lon":-89.1811,"Lat":37.0123},"41":{"County":"Alexander","State":"NC","Zipcode":28636,"Name":"Hiddenite","Max_temp":6.14,"Min_temp":0.97,"Description":"scattered clouds","Feels_like":1.61,"Sunrise":1637755800,"Sunset":1637791940,"Lon":-81.0487,"Lat":35.9504},"42":{"County":"Alexandria","State":"VA","Zipcode":22301,"Name":"Alexandria","Max_temp":6.13,"Min_temp":0.27,"Description":"scattered clouds","Feels_like":1.03,"Sunrise":1637755258,"Sunset":1637790567,"Lon":-77.0589,"Lat":38.82},"43":{"County":"Alfalfa","State":"OK","Zipcode":73716,"Name":"Aline","Max_temp":14.73,"Min_temp":13.25,"Description":"overcast clouds","Feels_like":11.84,"Sunrise":1637760059,"Sunset":1637796039,"Lon":-98.4574,"Lat":36.5056},"44":{"County":"Alger","State":"MI","Zipcode":49806,"Name":"Au Train","Max_temp":5.12,"Min_temp":0.57,"Description":"overcast clouds","Feels_like":0.69,"Sunrise":1637758942,"Sunset":1637791613,"Lon":-86.9115,"Lat":46.4446},"45":{"County":"Allamakee","State":"IA","Zipcode":52140,"Name":"Dorchester","Max_temp":9.84,"Min_temp":7.31,"Description":"overcast clouds","Feels_like":5.2,"Sunrise":1637759483,"Sunset":1637793279,"Lon":-91.5076,"Lat":43.4421},"46":{"County":"Allegan","State":"MI","Zipcode":49010,"Name":"Allegan","Max_temp":11.01,"Min_temp":7.25,"Description":"overcast clouds","Feels_like":8.31,"Sunrise":1637757969,"Sunset":1637792084,"Lon":-85.8661,"Lat":42.5256},"47":{"County":"Allegany","State":"MD","Zipcode":21502,"Name":"Cumberland","Max_temp":5.89,"Min_temp":0.01,"Description":"clear sky","Feels_like":2.6,"Sunrise":1637755806,"Sunset":1637790876,"Lon":-78.8444,"Lat":39.5992},"48":{"County":"Allegany","State":"NY","Zipcode":14707,"Name":"Allentown","Max_temp":3.02,"Min_temp":-2.65,"Description":"clear sky","Feels_like":-2.84,"Sunrise":1637756017,"Sunset":1637790288,"Lon":-78.0594,"Lat":42.0737},"49":{"County":"Alleghany","State":"NC","Zipcode":28623,"Name":"Ennice","Max_temp":2.79,"Min_temp":-2.36,"Description":"scattered clouds","Feels_like":0.62,"Sunrise":1637755864,"Sunset":1637791842,"Lon":-80.9771,"Lat":36.5253},"50":{"County":"Alleghany","State":"VA","Zipcode":24422,"Name":"Clifton Forge","Max_temp":6.06,"Min_temp":-0.21,"Description":"overcast clouds","Feels_like":1.95,"Sunrise":1637755769,"Sunset":1637791375,"Lon":-79.8054,"Lat":37.8203},"51":{"County":"Allegheny","State":"PA","Zipcode":15006,"Name":"Bairdford","Max_temp":5.95,"Min_temp":-0.48,"Description":"clear sky","Feels_like":0.56,"Sunrise":1637756218,"Sunset":1637790962,"Lon":-79.8814,"Lat":40.6312},"52":{"County":"Allen","State":"IN","Zipcode":46741,"Name":"Grabill","Max_temp":10.05,"Min_temp":7.57,"Description":"broken clouds","Feels_like":6.52,"Sunrise":1637757527,"Sunset":1637792082,"Lon":-84.9406,"Lat":41.2108},"53":{"County":"Allen","State":"KS","Zipcode":66732,"Name":"Elsmore","Max_temp":16.95,"Min_temp":15.4,"Description":"overcast clouds","Feels_like":15.62,"Sunrise":1637759453,"Sunset":1637795060,"Lon":-95.1546,"Lat":37.8035},"54":{"County":"Allen","State":"KY","Zipcode":42120,"Name":"Adolphus","Max_temp":11.97,"Min_temp":7.49,"Description":"broken clouds","Feels_like":9.25,"Sunrise":1637757155,"Sunset":1637793089,"Lon":-86.2636,"Lat":36.6775},"55":{"County":"Allen","State":"OH","Zipcode":45801,"Name":"Lima","Max_temp":9.75,"Min_temp":6.82,"Description":"overcast clouds","Feels_like":4.64,"Sunrise":1637757252,"Sunset":1637791952,"Lon":-84.0973,"Lat":40.7641},"56":{"County":"Allen","State":"LA","Zipcode":70637,"Name":"Dry Creek","Max_temp":20.42,"Min_temp":17.98,"Description":"overcast clouds","Feels_like":19.37,"Sunrise":1637757981,"Sunset":1637795489,"Lon":-92.9843,"Lat":30.6859},"57":{"County":"Allendale","State":"SC","Zipcode":29810,"Name":"Allendale","Max_temp":6.11,"Min_temp":2.83,"Description":"clear sky","Feels_like":4.91,"Sunrise":1637755472,"Sunset":1637792399,"Lon":-81.3203,"Lat":33.0077},"58":{"County":"Alpena","State":"MI","Zipcode":49707,"Name":"Alpena","Max_temp":8.04,"Min_temp":5.01,"Description":"scattered clouds","Feels_like":6.58,"Sunrise":1637757849,"Sunset":1637791049,"Lon":-83.4602,"Lat":45.079},"59":{"County":"Alpine","State":"CA","Zipcode":96120,"Name":"Markleeville","Max_temp":9.1,"Min_temp":1.66,"Description":"clear sky","Feels_like":3.89,"Sunrise":1637765524,"Sunset":1637800837,"Lon":-119.8327,"Lat":38.7713},"60":{"County":"Amador","State":"CA","Zipcode":95629,"Name":"Fiddletown","Max_temp":16.32,"Min_temp":6.7,"Description":"clear sky","Feels_like":10.83,"Sunrise":1637765689,"Sunset":1637801076,"Lon":-120.6763,"Lat":38.5234},"61":{"County":"Amelia","State":"VA","Zipcode":23002,"Name":"Amelia Court House","Max_temp":4.05,"Min_temp":-0.01,"Description":"broken clouds","Feels_like":-0.65,"Sunrise":1637755262,"Sunset":1637791007,"Lon":-77.9841,"Lat":37.3428},"62":{"County":"Amherst","State":"VA","Zipcode":24521,"Name":"Amherst","Max_temp":5.9,"Min_temp":-0.37,"Description":"overcast clouds","Feels_like":2.72,"Sunrise":1637755556,"Sunset":1637791225,"Lon":-79.0506,"Lat":37.6027},"63":{"County":"Amite","State":"MS","Zipcode":39638,"Name":"Gloster","Max_temp":16.6,"Min_temp":13.4,"Description":"broken clouds","Feels_like":14.11,"Sunrise":1637757549,"Sunset":1637794933,"Lon":-90.924,"Lat":31.1903},"64":{"County":"Anchorage","State":"AK","Zipcode":99501,"Name":"Anchorage","Max_temp":-6.94,"Min_temp":-11.36,"Description":"light snow","Feels_like":-9.18,"Sunrise":1637778602,"Sunset":1637802183,"Lon":-149.8761,"Lat":61.2116},"65":{"County":"Anderson","State":"KS","Zipcode":66015,"Name":"Colony","Max_temp":16.1,"Min_temp":13.15,"Description":"overcast clouds","Feels_like":13.91,"Sunrise":1637759535,"Sunset":1637795061,"Lon":-95.3287,"Lat":38.0761},"66":{"County":"Anderson","State":"KY","Zipcode":40342,"Name":"Lawrenceburg","Max_temp":10.92,"Min_temp":7.38,"Description":"clear sky","Feels_like":9.2,"Sunrise":1637757029,"Sunset":1637792575,"Lon":-84.9299,"Lat":38.0189},"67":{"County":"Anderson","State":"SC","Zipcode":29621,"Name":"Anderson","Max_temp":8.6,"Min_temp":2.77,"Description":"clear sky","Feels_like":5.47,"Sunrise":1637755986,"Sunset":1637792514,"Lon":-82.6304,"Lat":34.5261},"68":{"County":"Anderson","State":"TN","Zipcode":37705,"Name":"Andersonville","Max_temp":9.05,"Min_temp":2.04,"Description":"clear sky","Feels_like":4.05,"Sunrise":1637756556,"Sunset":1637792628,"Lon":-84.0544,"Lat":36.1915},"69":{"County":"Anderson","State":"TX","Zipcode":75763,"Name":"Frankston","Max_temp":22.42,"Min_temp":21.06,"Description":"overcast clouds","Feels_like":21.94,"Sunrise":1637758759,"Sunset":1637795927,"Lon":-95.5163,"Lat":32.0535},"70":{"County":"Andrew","State":"MO","Zipcode":64421,"Name":"Amazonia","Max_temp":12.81,"Min_temp":7.59,"Description":"broken clouds","Feels_like":9.03,"Sunrise":1637759714,"Sunset":1637794682,"Lon":-94.9113,"Lat":39.9092},"71":{"County":"Andrews","State":"TX","Zipcode":79714,"Name":"Andrews","Max_temp":19.22,"Min_temp":16.71,"Description":"clear sky","Feels_like":16.29,"Sunrise":1637760480,"Sunset":1637797579,"Lon":-102.5409,"Lat":32.3201},"72":{"County":"Androscoggin","State":"ME","Zipcode":4210,"Name":"Auburn","Max_temp":1.24,"Min_temp":-3.19,"Description":"clear sky","Feels_like":-3.39,"Sunrise":1637754491,"Sunset":1637788059,"Lon":-70.239,"Lat":44.0948},"73":{"County":"Angelina","State":"TX","Zipcode":75901,"Name":"Lufkin","Max_temp":21.14,"Min_temp":19.78,"Description":"few clouds","Feels_like":20.68,"Sunrise":1637758453,"Sunset":1637795816,"Lon":-94.6469,"Lat":31.27},"74":{"County":"Anne","State":"MD","Zipcode":20711,"Name":"Lothian","Max_temp":5.92,"Min_temp":0.01,"Description":"clear sky","Feels_like":2.91,"Sunrise":1637755160,"Sunset":1637790474,"Lon":-76.6628,"Lat":38.8029},"75":{"County":"Anoka","State":"MN","Zipcode":55005,"Name":"Bethel","Max_temp":2.4,"Min_temp":-0.89,"Description":"overcast clouds","Feels_like":-4.97,"Sunrise":1637760255,"Sunset":1637793335,"Lon":-93.2315,"Lat":45.3887},"76":{"County":"Anson","State":"NC","Zipcode":28007,"Name":"Ansonville","Max_temp":7.51,"Min_temp":0.97,"Description":"clear sky","Feels_like":3.36,"Sunrise":1637755459,"Sunset":1637791831,"Lon":-80.1092,"Lat":35.1046},"77":{"County":"Antelope","State":"NE","Zipcode":68636,"Name":"Elgin","Max_temp":2.17,"Min_temp":0.5,"Description":"overcast clouds","Feels_like":-5.25,"Sunrise":1637760808,"Sunset":1637795107,"Lon":-98.0751,"Lat":41.9732},"78":{"County":"Antrim","State":"MI","Zipcode":49611,"Name":"Alba","Max_temp":7.88,"Min_temp":1.62,"Description":"clear sky","Feels_like":5.69,"Sunrise":1637758193,"Sunset":1637791432,"Lon":-84.9745,"Lat":44.9737},"79":{"County":"Apache","State":"AZ","Zipcode":85920,"Name":"Alpine","Max_temp":4.09,"Min_temp":0.13,"Description":"overcast clouds","Feels_like":1.45,"Sunrise":1637762257,"Sunset":1637798965,"Lon":-109.1283,"Lat":33.8279},"80":{"County":"Appanoose","State":"IA","Zipcode":52544,"Name":"Centerville","Max_temp":13.06,"Min_temp":8.86,"Description":"clear sky","Feels_like":10.0,"Sunrise":1637759355,"Sunset":1637794063,"Lon":-92.8728,"Lat":40.7326},"81":{"County":"Appling","State":"GA","Zipcode":31513,"Name":"Baxley","Max_temp":11.09,"Min_temp":4.81,"Description":"clear sky","Feels_like":7.87,"Sunrise":1637755563,"Sunset":1637792801,"Lon":-82.3486,"Lat":31.7837},"82":{"County":"Appomattox","State":"VA","Zipcode":23958,"Name":"Pamplin","Max_temp":4.51,"Min_temp":-0.67,"Description":"broken clouds","Feels_like":-0.41,"Sunrise":1637755411,"Sunset":1637791179,"Lon":-78.6517,"Lat":37.2653},"83":{"County":"Aransas","State":"TX","Zipcode":78358,"Name":"Fulton","Max_temp":24.99,"Min_temp":22.76,"Description":"overcast clouds","Feels_like":24.07,"Sunrise":1637758646,"Sunset":1637796772,"Lon":-97.0416,"Lat":28.0865},"84":{"County":"Arapahoe","State":"CO","Zipcode":80010,"Name":"Aurora","Max_temp":3.37,"Min_temp":-1.57,"Description":"light snow","Feels_like":0.85,"Sunrise":1637762077,"Sunset":1637797097,"Lon":-104.8646,"Lat":39.7368},"85":{"County":"Archer","State":"TX","Zipcode":76351,"Name":"Archer City","Max_temp":22.16,"Min_temp":18.39,"Description":"overcast clouds","Feels_like":19.13,"Sunrise":1637759699,"Sunset":1637796480,"Lon":-98.6249,"Lat":33.5562},"86":{"County":"Archuleta","State":"CO","Zipcode":81121,"Name":"Arboles","Max_temp":5.69,"Min_temp":2.13,"Description":"scattered clouds","Feels_like":1.08,"Sunrise":1637762286,"Sunset":1637798115,"Lon":-107.4192,"Lat":37.0281},"87":{"County":"Arecibo","State":"PR","Zipcode":612,"Name":"Arecibo","Max_temp":27.29,"Min_temp":23.37,"Description":"scattered clouds","Feels_like":26.79,"Sunrise":1637750338,"Sunset":1637790528,"Lon":-66.73,"Lat":18.45},"88":{"County":"Arenac","State":"MI","Zipcode":48610,"Name":"Alger","Max_temp":8.66,"Min_temp":6.64,"Description":"clear sky","Feels_like":6.09,"Sunrise":1637757850,"Sunset":1637791397,"Lon":-84.1872,"Lat":44.1395},"89":{"County":"Arkansas","State":"AR","Zipcode":72003,"Name":"Almyra","Max_temp":17.86,"Min_temp":15.16,"Description":"overcast clouds","Feels_like":14.95,"Sunrise":1637758085,"Sunset":1637794640,"Lon":-91.431,"Lat":34.4146},"90":{"County":"Arlington","State":"VA","Zipcode":22201,"Name":"Arlington","Max_temp":5.77,"Min_temp":-0.13,"Description":"scattered clouds","Feels_like":0.63,"Sunrise":1637755277,"Sunset":1637790565,"Lon":-77.0932,"Lat":38.8871},"91":{"County":"Armstrong","State":"PA","Zipcode":15673,"Name":"North Apollo","Max_temp":5.62,"Min_temp":0.2,"Description":"overcast clouds","Feels_like":1.26,"Sunrise":1637756134,"Sunset":1637790891,"Lon":-79.5581,"Lat":40.593},"92":{"County":"Armstrong","State":"TX","Zipcode":79094,"Name":"Wayside","Max_temp":13.53,"Min_temp":12.42,"Description":"broken clouds","Feels_like":10.27,"Sunrise":1637760543,"Sunset":1637796948,"Lon":-101.3578,"Lat":34.9653},"93":{"County":"Aroostook","State":"ME","Zipcode":4471,"Name":"Orient","Max_temp":-1.21,"Min_temp":-2.83,"Description":"few clouds","Feels_like":-8.07,"Sunrise":1637754254,"Sunset":1637787149,"Lon":-67.8471,"Lat":45.8911},"94":{"County":"Arroyo","State":"PR","Zipcode":714,"Name":"Arroyo","Max_temp":26.19,"Min_temp":23.62,"Description":"broken clouds","Feels_like":25.98,"Sunrise":1637750130,"Sunset":1637790415,"Lon":-66.06,"Lat":17.97},"95":{"County":"Arthur","State":"NE","Zipcode":69121,"Name":"Arthur","Max_temp":1.18,"Min_temp":-0.07,"Description":"broken clouds","Feels_like":-6.09,"Sunrise":1637761610,"Sunset":1637796042,"Lon":-101.6931,"Lat":41.574},"96":{"County":"Ascension","State":"LA","Zipcode":70346,"Name":"Donaldsonville","Max_temp":18.97,"Min_temp":16.12,"Description":"scattered clouds","Feels_like":17.34,"Sunrise":1637757433,"Sunset":1637795083,"Lon":-90.997,"Lat":30.1018},"97":{"County":"Ashe","State":"NC","Zipcode":28615,"Name":"Creston","Max_temp":1.78,"Min_temp":-3.02,"Description":"scattered clouds","Feels_like":-2.12,"Sunrise":1637756015,"Sunset":1637792014,"Lon":-81.6506,"Lat":36.45},"98":{"County":"Ashland","State":"OH","Zipcode":44805,"Name":"Ashland","Max_temp":7.1,"Min_temp":5.06,"Description":"overcast clouds","Feels_like":4.31,"Sunrise":1637756839,"Sunset":1637791511,"Lon":-82.3189,"Lat":40.8559},"99":{"County":"Ashland","State":"WI","Zipcode":54514,"Name":"Butternut","Max_temp":2.94,"Min_temp":-0.61,"Description":"overcast clouds","Feels_like":-3.08,"Sunrise":1637759716,"Sunset":1637792554,"Lon":-90.4821,"Lat":46.0184},"100":{"County":"Ashley","State":"AR","Zipcode":71635,"Name":"Crossett","Max_temp":16.23,"Min_temp":14.92,"Description":"overcast clouds","Feels_like":14.42,"Sunrise":1637758055,"Sunset":1637794942,"Lon":-91.9975,"Lat":33.156},"101":{"County":"Ashtabula","State":"OH","Zipcode":44003,"Name":"Andover","Max_temp":7.45,"Min_temp":4.25,"Description":"clear sky","Feels_like":1.64,"Sunrise":1637756546,"Sunset":1637790967,"Lon":-80.5754,"Lat":41.6225},"102":{"County":"Asotin","State":"WA","Zipcode":99401,"Name":"Anatone","Max_temp":2.42,"Min_temp":-2.27,"Description":"broken clouds","Feels_like":-2.88,"Sunrise":1637766129,"Sunset":1637798914,"Lon":-117.0883,"Lat":46.1285},"103":{"County":"Assumption","State":"LA","Zipcode":70339,"Name":"Pierre Part","Max_temp":19.02,"Min_temp":16.14,"Description":"broken clouds","Feels_like":17.69,"Sunrise":1637757461,"Sunset":1637795148,"Lon":-91.1885,"Lat":29.9476},"104":{"County":"Atascosa","State":"TX","Zipcode":78008,"Name":"Campbellton","Max_temp":25.61,"Min_temp":22.94,"Description":"overcast clouds","Feels_like":25.78,"Sunrise":1637759018,"Sunset":1637796984,"Lon":-98.2566,"Lat":28.767},"105":{"County":"Atchison","State":"KS","Zipcode":66002,"Name":"Atchison","Max_temp":14.63,"Min_temp":8.76,"Description":"overcast clouds","Feels_like":10.19,"Sunrise":1637759712,"Sunset":1637794789,"Lon":-95.1304,"Lat":39.5594},"106":{"County":"Atchison","State":"MO","Zipcode":64446,"Name":"Fairfax","Max_temp":10.16,"Min_temp":4.32,"Description":"overcast clouds","Feels_like":3.68,"Sunrise":1637759891,"Sunset":1637794727,"Lon":-95.3751,"Lat":40.3302},"107":{"County":"Athens","State":"OH","Zipcode":45701,"Name":"Athens","Max_temp":8.36,"Min_temp":2.45,"Description":"clear sky","Feels_like":2.88,"Sunrise":1637756545,"Sunset":1637791701,"Lon":-82.102,"Lat":39.3178},"108":{"County":"Atkinson","State":"GA","Zipcode":31624,"Name":"Axson","Max_temp":11.16,"Min_temp":7.35,"Description":"clear sky","Feels_like":9.21,"Sunrise":1637755595,"Sunset":1637792953,"Lon":-82.7319,"Lat":31.3035},"109":{"County":"Atlantic","State":"NJ","Zipcode":8037,"Name":"Hammonton","Max_temp":6.06,"Min_temp":0.57,"Description":"scattered clouds","Feels_like":0.77,"Sunrise":1637754834,"Sunset":1637789893,"Lon":-74.7728,"Lat":39.638},"110":{"County":"Atoka","State":"OK","Zipcode":74525,"Name":"Atoka","Max_temp":20.68,"Min_temp":18.23,"Description":"overcast clouds","Feels_like":20.4,"Sunrise":1637759207,"Sunset":1637795780,"Lon":-96.1418,"Lat":34.3445},"111":{"County":"Attala","State":"MS","Zipcode":39067,"Name":"Ethel","Max_temp":13.86,"Min_temp":8.64,"Description":"broken clouds","Feels_like":10.82,"Sunrise":1637757443,"Sunset":1637794339,"Lon":-89.4659,"Lat":33.1204},"112":{"County":"Audrain","State":"MO","Zipcode":63345,"Name":"Farber","Max_temp":16.19,"Min_temp":14.47,"Description":"overcast clouds","Feels_like":14.87,"Sunrise":1637758815,"Sunset":1637793982,"Lon":-91.5798,"Lat":39.2742},"113":{"County":"Audubon","State":"IA","Zipcode":50025,"Name":"Audubon","Max_temp":4.5,"Min_temp":0.21,"Description":"scattered clouds","Feels_like":-3.02,"Sunrise":1637760008,"Sunset":1637794390,"Lon":-94.9164,"Lat":41.73},"114":{"County":"Auglaize","State":"OH","Zipcode":45819,"Name":"Buckland","Max_temp":9.91,"Min_temp":6.9,"Description":"overcast clouds","Feels_like":6.04,"Sunrise":1637757269,"Sunset":1637792014,"Lon":-84.2603,"Lat":40.6241},"115":{"County":"Augusta","State":"VA","Zipcode":22939,"Name":"Fishersville","Max_temp":4.54,"Min_temp":-1.73,"Description":"clear sky","Feels_like":1.26,"Sunrise":1637755614,"Sunset":1637791139,"Lon":-78.9929,"Lat":38.0964},"116":{"County":"Aurora","State":"SD","Zipcode":57368,"Name":"Plankinton","Max_temp":1.28,"Min_temp":-1.39,"Description":"overcast clouds","Feels_like":-6.8,"Sunrise":1637761208,"Sunset":1637794896,"Lon":-98.4694,"Lat":43.7373},"117":{"County":"Austin","State":"TX","Zipcode":77418,"Name":"Bellville","Max_temp":23.08,"Min_temp":21.01,"Description":"overcast clouds","Feels_like":23.19,"Sunrise":1637758679,"Sunset":1637796361,"Lon":-96.2531,"Lat":29.9658},"118":{"County":"Autauga","State":"AL","Zipcode":36003,"Name":"Autaugaville","Max_temp":10.17,"Min_temp":5.62,"Description":"clear sky","Feels_like":7.67,"Sunrise":1637756697,"Sunset":1637793763,"Lon":-86.7149,"Lat":32.4625},"119":{"County":"Avery","State":"NC","Zipcode":28622,"Name":"Elk Park","Max_temp":2.75,"Min_temp":-2.71,"Description":"scattered clouds","Feels_like":-2.01,"Sunrise":1637756050,"Sunset":1637792130,"Lon":-81.9639,"Lat":36.1646},"120":{"County":"Avoyelles","State":"LA","Zipcode":71322,"Name":"Bunkie","Max_temp":20.05,"Min_temp":15.12,"Description":"scattered clouds","Feels_like":18.87,"Sunrise":1637757802,"Sunset":1637795267,"Lon":-92.1466,"Lat":30.8641},"121":{"County":"Baca","State":"CO","Zipcode":81029,"Name":"Campo","Max_temp":8.19,"Min_temp":7.66,"Description":"overcast clouds","Feels_like":3.78,"Sunrise":1637761129,"Sunset":1637796933,"Lon":-102.5464,"Lat":37.1195},"122":{"County":"Bacon","State":"GA","Zipcode":31510,"Name":"Alma","Max_temp":11.12,"Min_temp":7.81,"Description":"clear sky","Feels_like":8.97,"Sunrise":1637755561,"Sunset":1637792859,"Lon":-82.4633,"Lat":31.5465},"123":{"County":"Bailey","State":"TX","Zipcode":79324,"Name":"Enochs","Max_temp":15.43,"Min_temp":10.87,"Description":"broken clouds","Feels_like":13.7,"Sunrise":1637760733,"Sunset":1637797431,"Lon":-102.7599,"Lat":33.8731},"124":{"County":"Baker","State":"FL","Zipcode":32040,"Name":"Glen Saint Mary","Max_temp":14.36,"Min_temp":11.59,"Description":"clear sky","Feels_like":11.88,"Sunrise":1637755344,"Sunset":1637792951,"Lon":-82.2041,"Lat":30.2861},"125":{"County":"Baker","State":"GA","Zipcode":39870,"Name":"Newton","Max_temp":13.56,"Min_temp":5.11,"Description":"few clouds","Feels_like":8.86,"Sunrise":1637755982,"Sunset":1637793337,"Lon":-84.3367,"Lat":31.3164},"126":{"County":"Baker","State":"OR","Zipcode":97814,"Name":"Baker City","Max_temp":2.68,"Min_temp":1.44,"Description":"clear sky","Feels_like":-3.4,"Sunrise":1637766049,"Sunset":1637799352,"Lon":-117.8344,"Lat":44.7749},"127":{"County":"Baldwin","State":"AL","Zipcode":36507,"Name":"Bay Minette","Max_temp":15.52,"Min_temp":9.61,"Description":"scattered clouds","Feels_like":11.75,"Sunrise":1637756750,"Sunset":1637794215,"Lon":-87.7644,"Lat":30.8635},"128":{"County":"Baldwin","State":"GA","Zipcode":31061,"Name":"Milledgeville","Max_temp":9.12,"Min_temp":5.21,"Description":"clear sky","Feels_like":6.42,"Sunrise":1637755942,"Sunset":1637792850,"Lon":-83.2379,"Lat":33.08},"129":{"County":"Ballard","State":"KY","Zipcode":42022,"Name":"Bandana","Max_temp":14.92,"Min_temp":13.1,"Description":"few clouds","Feels_like":12.44,"Sunrise":1637757866,"Sunset":1637793666,"Lon":-88.9455,"Lat":37.1459},"130":{"County":"Baltimore","State":"MD","Zipcode":21013,"Name":"Baldwin","Max_temp":4.47,"Min_temp":-1.17,"Description":"broken clouds","Feels_like":0.38,"Sunrise":1637755229,"Sunset":1637790324,"Lon":-76.4927,"Lat":39.5194},"131":{"County":"Baltimore","State":"MD","Zipcode":21201,"Name":"Baltimore","Max_temp":6.01,"Min_temp":0.1,"Description":"scattered clouds","Feels_like":1.64,"Sunrise":1637755226,"Sunset":1637790390,"Lon":-76.6252,"Lat":39.2946},"132":{"County":"Bamberg","State":"SC","Zipcode":29003,"Name":"Bamberg","Max_temp":6.18,"Min_temp":2.9,"Description":"clear sky","Feels_like":3.09,"Sunrise":1637755434,"Sunset":1637792292,"Lon":-81.0177,"Lat":33.2779},"133":{"County":"Bandera","State":"TX","Zipcode":78003,"Name":"Bandera","Max_temp":23.09,"Min_temp":18.3,"Description":"overcast clouds","Feels_like":19.5,"Sunrise":1637759321,"Sunset":1637797060,"Lon":-99.0453,"Lat":29.7276},"134":{"County":"Banks","State":"GA","Zipcode":30511,"Name":"Baldwin","Max_temp":9.34,"Min_temp":3.0,"Description":"few clouds","Feels_like":6.16,"Sunrise":1637756180,"Sunset":1637792726,"Lon":-83.476,"Lat":34.4574},"135":{"County":"Banner","State":"NE","Zipcode":69345,"Name":"Harrisburg","Max_temp":-0.14,"Min_temp":-2.54,"Description":"broken clouds","Feels_like":-6.97,"Sunrise":1637762092,"Sunset":1637796529,"Lon":-103.7111,"Lat":41.5531},"136":{"County":"Bannock","State":"ID","Zipcode":83201,"Name":"Pocatello","Max_temp":0.82,"Min_temp":-1.42,"Description":"few clouds","Feels_like":-2.93,"Sunrise":1637764414,"Sunset":1637798397,"Lon":-112.4381,"Lat":42.8876},"137":{"County":"Baraga","State":"MI","Zipcode":49908,"Name":"Baraga","Max_temp":4.1,"Min_temp":2.01,"Description":"overcast clouds","Feels_like":1.84,"Sunrise":1637759414,"Sunset":1637791940,"Lon":-88.5758,"Lat":46.8048},"138":{"County":"Barber","State":"KS","Zipcode":67057,"Name":"Hardtner","Max_temp":14.01,"Min_temp":12.89,"Description":"overcast clouds","Feels_like":11.64,"Sunrise":1637760181,"Sunset":1637796012,"Lon":-98.6547,"Lat":37.03},"139":{"County":"Barbour","State":"AL","Zipcode":36016,"Name":"Clayton","Max_temp":9.72,"Min_temp":5.41,"Description":"few clouds","Feels_like":5.55,"Sunrise":1637756321,"Sunset":1637793533,"Lon":-85.4509,"Lat":31.8874},"140":{"County":"Barbour","State":"WV","Zipcode":26238,"Name":"Volga","Max_temp":3.73,"Min_temp":-0.87,"Description":"overcast clouds","Feels_like":-1.17,"Sunrise":1637756015,"Sunset":1637791230,"Lon":-80.018,"Lat":39.1251},"141":{"County":"Barceloneta","State":"PR","Zipcode":617,"Name":"Barceloneta","Max_temp":27.19,"Min_temp":23.27,"Description":"scattered clouds","Feels_like":26.42,"Sunrise":1637750297,"Sunset":1637790487,"Lon":-66.56,"Lat":18.45},"142":{"County":"Barnes","State":"ND","Zipcode":58031,"Name":"Fingal","Max_temp":-8.02,"Min_temp":-10.72,"Description":"overcast clouds","Feels_like":-16.78,"Sunrise":1637761619,"Sunset":1637794155,"Lon":-97.7812,"Lat":46.7728},"143":{"County":"Barnstable","State":"MA","Zipcode":2532,"Name":"Buzzards Bay","Max_temp":5.04,"Min_temp":-1.1,"Description":"clear sky","Feels_like":-2.61,"Sunrise":1637754168,"Sunset":1637788551,"Lon":-70.5905,"Lat":41.7455},"144":{"County":"Barnwell","State":"SC","Zipcode":29812,"Name":"Barnwell","Max_temp":6.4,"Min_temp":3.83,"Description":"scattered clouds","Feels_like":5.05,"Sunrise":1637755509,"Sunset":1637792378,"Lon":-81.3523,"Lat":33.2335},"145":{"County":"Barranquitas","State":"PR","Zipcode":794,"Name":"Barranquitas","Max_temp":23.56,"Min_temp":19.66,"Description":"broken clouds","Feels_like":21.93,"Sunrise":1637750208,"Sunset":1637790452,"Lon":-66.3,"Lat":18.18},"146":{"County":"Barren","State":"KY","Zipcode":42123,"Name":"Austin","Max_temp":10.98,"Min_temp":6.33,"Description":"overcast clouds","Feels_like":7.38,"Sunrise":1637757107,"Sunset":1637793003,"Lon":-85.985,"Lat":36.8124},"147":{"County":"Barron","State":"WI","Zipcode":54728,"Name":"Chetek","Max_temp":5.35,"Min_temp":0.27,"Description":"clear sky","Feels_like":-1.79,"Sunrise":1637759862,"Sunset":1637792970,"Lon":-91.6542,"Lat":45.317},"148":{"County":"Barrow","State":"GA","Zipcode":30011,"Name":"Auburn","Max_temp":9.92,"Min_temp":3.65,"Description":"clear sky","Feels_like":6.52,"Sunrise":1637756206,"Sunset":1637792868,"Lon":-83.8261,"Lat":34.0191},"149":{"County":"Barry","State":"MI","Zipcode":48897,"Name":"Woodland","Max_temp":9.5,"Min_temp":7.21,"Description":"overcast clouds","Feels_like":5.35,"Sunrise":1637757824,"Sunset":1637791878,"Lon":-85.1326,"Lat":42.7057},"150":{"County":"Barry","State":"MO","Zipcode":64874,"Name":"Wheaton","Max_temp":17.17,"Min_temp":14.46,"Description":"overcast clouds","Feels_like":15.65,"Sunrise":1637759037,"Sunset":1637794945,"Lon":-94.0492,"Lat":36.7651},"151":{"County":"Bartholomew","State":"IN","Zipcode":47201,"Name":"Columbus","Max_temp":12.43,"Min_temp":9.05,"Description":"broken clouds","Feels_like":9.09,"Sunrise":1637757448,"Sunset":1637792637,"Lon":-85.9317,"Lat":39.2055},"152":{"County":"Barton","State":"KS","Zipcode":67511,"Name":"Albert","Max_temp":9.79,"Min_temp":7.62,"Description":"scattered clouds","Feels_like":4.5,"Sunrise":1637760475,"Sunset":1637795889,"Lon":-99.0115,"Lat":38.4528},"153":{"County":"Barton","State":"MO","Zipcode":64748,"Name":"Golden City","Max_temp":17.86,"Min_temp":16.25,"Description":"light rain","Feels_like":16.84,"Sunrise":1637759141,"Sunset":1637794866,"Lon":-94.1027,"Lat":37.3995},"154":{"County":"Bartow","State":"GA","Zipcode":30103,"Name":"Adairsville","Max_temp":10.49,"Min_temp":4.11,"Description":"clear sky","Feels_like":6.38,"Sunrise":1637756513,"Sunset":1637793085,"Lon":-84.9176,"Lat":34.3595},"155":{"County":"Bastrop","State":"TX","Zipcode":78602,"Name":"Bastrop","Max_temp":23.83,"Min_temp":20.96,"Description":"overcast clouds","Feels_like":23.1,"Sunrise":1637758949,"Sunset":1637796590,"Lon":-97.2921,"Lat":30.1388},"156":{"County":"Bates","State":"MO","Zipcode":64720,"Name":"Adrian","Max_temp":16.42,"Min_temp":13.04,"Description":"overcast clouds","Feels_like":14.38,"Sunrise":1637759354,"Sunset":1637794781,"Lon":-94.3683,"Lat":38.4125},"157":{"County":"Bath","State":"KY","Zipcode":40358,"Name":"Olympia","Max_temp":11.48,"Min_temp":0.58,"Description":"clear sky","Feels_like":5.6,"Sunrise":1637756743,"Sunset":1637792270,"Lon":-83.7008,"Lat":38.0849},"158":{"County":"Bath","State":"VA","Zipcode":24445,"Name":"Hot Springs","Max_temp":2.38,"Min_temp":-2.33,"Description":"overcast clouds","Feels_like":-0.59,"Sunrise":1637755806,"Sunset":1637791369,"Lon":-79.8717,"Lat":37.9638},"159":{"County":"Baxter","State":"AR","Zipcode":72537,"Name":"Gamaliel","Max_temp":15.72,"Min_temp":13.77,"Description":"overcast clouds","Feels_like":13.81,"Sunrise":1637758557,"Sunset":1637794551,"Lon":-92.2284,"Lat":36.4618},"160":{"County":"Bay","State":"FL","Zipcode":32401,"Name":"Panama City","Max_temp":12.2,"Min_temp":7.75,"Description":"clear sky","Feels_like":10.1,"Sunrise":1637756156,"Sunset":1637793793,"Lon":-85.6494,"Lat":30.1606},"161":{"County":"Bay","State":"MI","Zipcode":48611,"Name":"Auburn","Max_temp":9.94,"Min_temp":7.43,"Description":"few clouds","Feels_like":5.2,"Sunrise":1637757734,"Sunset":1637791473,"Lon":-84.1027,"Lat":43.608},"162":{"County":"Bayamn","State":"PR","Zipcode":956,"Name":"Bayamon","Max_temp":26.11,"Min_temp":22.94,"Description":"scattered clouds","Feels_like":25.5,"Sunrise":1637750191,"Sunset":1637790407,"Lon":-66.17,"Lat":18.32},"163":{"County":"Bayfield","State":"WI","Zipcode":54814,"Name":"Bayfield","Max_temp":1.72,"Min_temp":-0.22,"Description":"overcast clouds","Feels_like":-4.08,"Sunrise":1637759960,"Sunset":1637792472,"Lon":-90.8217,"Lat":46.8354},"164":{"County":"Baylor","State":"TX","Zipcode":76380,"Name":"Seymour","Max_temp":19.04,"Min_temp":18.27,"Description":"overcast clouds","Feels_like":18.1,"Sunrise":1637759856,"Sunset":1637796628,"Lon":-99.2587,"Lat":33.5914},"165":{"County":"Beadle","State":"SD","Zipcode":57322,"Name":"Carpenter","Max_temp":-1.34,"Min_temp":-3.45,"Description":"overcast clouds","Feels_like":-7.77,"Sunrise":1637761244,"Sunset":1637794595,"Lon":-97.9168,"Lat":44.6648},"166":{"County":"Bear","State":"ID","Zipcode":83220,"Name":"Bern","Max_temp":-1.91,"Min_temp":-4.17,"Description":"scattered clouds","Feels_like":-5.77,"Sunrise":1637764065,"Sunset":1637798244,"Lon":-111.3926,"Lat":42.3191},"167":{"County":"Beaufort","State":"NC","Zipcode":27806,"Name":"Aurora","Max_temp":7.77,"Min_temp":0.58,"Description":"clear sky","Feels_like":2.21,"Sunrise":1637754691,"Sunset":1637791010,"Lon":-76.7994,"Lat":35.3023},"168":{"County":"Beaufort","State":"SC","Zipcode":29902,"Name":"Beaufort","Max_temp":9.06,"Min_temp":3.18,"Description":"clear sky","Feels_like":6.76,"Sunrise":1637755242,"Sunset":1637792317,"Lon":-80.6698,"Lat":32.4316},"169":{"County":"Beauregard","State":"LA","Zipcode":70634,"Name":"Deridder","Max_temp":21.81,"Min_temp":17.83,"Description":"clear sky","Feels_like":19.64,"Sunrise":1637758067,"Sunset":1637795540,"Lon":-93.2685,"Lat":30.8287},"170":{"County":"Beaver","State":"OK","Zipcode":73844,"Name":"Gate","Max_temp":11.86,"Min_temp":10.06,"Description":"overcast clouds","Feels_like":9.22,"Sunrise":1637760500,"Sunset":1637796374,"Lon":-100.0734,"Lat":36.8757},"171":{"County":"Beaver","State":"PA","Zipcode":15001,"Name":"Aliquippa","Max_temp":6.9,"Min_temp":0.55,"Description":"overcast clouds","Feels_like":3.76,"Sunrise":1637756317,"Sunset":1637791074,"Lon":-80.3197,"Lat":40.5921},"172":{"County":"Beaver","State":"UT","Zipcode":84713,"Name":"Beaver","Max_temp":1.53,"Min_temp":0.71,"Description":"clear sky","Feels_like":-3.87,"Sunrise":1637763721,"Sunset":1637799182,"Lon":-112.6299,"Lat":38.2807},"173":{"County":"Beaverhead","State":"MT","Zipcode":59724,"Name":"Dell","Max_temp":-2.56,"Min_temp":-2.96,"Description":"clear sky","Feels_like":-5.57,"Sunrise":1637764805,"Sunset":1637798130,"Lon":-112.6972,"Lat":44.723},"174":{"County":"Becker","State":"MN","Zipcode":56501,"Name":"Detroit Lakes","Max_temp":-9.73,"Min_temp":-12.03,"Description":"light snow","Feels_like":-18.01,"Sunrise":1637761163,"Sunset":1637793681,"Lon":-95.8453,"Lat":46.8172},"175":{"County":"Beckham","State":"OK","Zipcode":73627,"Name":"Carter","Max_temp":16.37,"Min_temp":14.21,"Description":"overcast clouds","Feels_like":12.85,"Sunrise":1637760127,"Sunset":1637796463,"Lon":-99.4822,"Lat":35.2208},"176":{"County":"Bedford","State":"PA","Zipcode":15521,"Name":"Alum Bank","Max_temp":4.81,"Min_temp":-2.65,"Description":"clear sky","Feels_like":1.5,"Sunrise":1637755844,"Sunset":1637790731,"Lon":-78.6206,"Lat":40.1858},"177":{"County":"Bedford","State":"TN","Zipcode":37020,"Name":"Bell Buckle","Max_temp":11.27,"Min_temp":7.05,"Description":"clear sky","Feels_like":7.44,"Sunrise":1637757041,"Sunset":1637793266,"Lon":-86.3949,"Lat":35.6381},"178":{"County":"Bedford","State":"VA","Zipcode":24095,"Name":"Goodview","Max_temp":6.51,"Min_temp":0.25,"Description":"overcast clouds","Feels_like":3.95,"Sunrise":1637755666,"Sunset":1637791448,"Lon":-79.7429,"Lat":37.2123},"179":{"County":"Bee","State":"TX","Zipcode":78102,"Name":"Beeville","Max_temp":24.12,"Min_temp":22.97,"Description":"overcast clouds","Feels_like":23.93,"Sunrise":1637758858,"Sunset":1637796906,"Lon":-97.7616,"Lat":28.4222},"180":{"County":"Belknap","State":"NH","Zipcode":3218,"Name":"Barnstead","Max_temp":1.91,"Min_temp":-2.92,"Description":"clear sky","Feels_like":-2.38,"Sunrise":1637754608,"Sunset":1637788447,"Lon":-71.2887,"Lat":43.3349},"181":{"County":"Bell","State":"KY","Zipcode":40813,"Name":"Calvin","Max_temp":8.32,"Min_temp":2.23,"Description":"clear sky","Feels_like":3.95,"Sunrise":1637756530,"Sunset":1637792454,"Lon":-83.6405,"Lat":36.7146},"182":{"County":"Bell","State":"TX","Zipcode":76501,"Name":"Temple","Max_temp":23.45,"Min_temp":20.43,"Description":"overcast clouds","Feels_like":22.26,"Sunrise":1637759076,"Sunset":1637796484,"Lon":-97.3343,"Lat":31.0895},"183":{"County":"Belmont","State":"OH","Zipcode":43713,"Name":"Barnesville","Max_temp":6.29,"Min_temp":2.36,"Description":"overcast clouds","Feels_like":1.21,"Sunrise":1637756417,"Sunset":1637791366,"Lon":-81.1375,"Lat":39.9853},"184":{"County":"Beltrami","State":"MN","Zipcode":56601,"Name":"Bemidji","Max_temp":-7.9,"Min_temp":-11.44,"Description":"light snow","Feels_like":-13.39,"Sunrise":1637761068,"Sunset":1637793276,"Lon":-94.8013,"Lat":47.572},"185":{"County":"Ben","State":"GA","Zipcode":31750,"Name":"Fitzgerald","Max_temp":10.82,"Min_temp":4.93,"Description":"clear sky","Feels_like":7.61,"Sunrise":1637755772,"Sunset":1637793025,"Lon":-83.2495,"Lat":31.7248},"186":{"County":"Benewah","State":"ID","Zipcode":83824,"Name":"Desmet","Max_temp":1.77,"Min_temp":-1.14,"Description":"broken clouds","Feels_like":-1.76,"Sunrise":1637766282,"Sunset":1637798667,"Lon":-116.8937,"Lat":47.126},"187":{"County":"Bennett","State":"SD","Zipcode":57551,"Name":"Martin","Max_temp":-4.0,"Min_temp":-4.54,"Description":"broken clouds","Feels_like":-11.4,"Sunrise":1637761892,"Sunset":1637795779,"Lon":-101.7341,"Lat":43.1722},"188":{"County":"Bennington","State":"VT","Zipcode":5152,"Name":"Peru","Max_temp":-1.95,"Min_temp":-6.61,"Description":"scattered clouds","Feels_like":-7.24,"Sunrise":1637754978,"Sunset":1637788844,"Lon":-72.8868,"Lat":43.2565},"189":{"County":"Benson","State":"ND","Zipcode":58332,"Name":"Esmond","Max_temp":-13.04,"Min_temp":-15.29,"Description":"overcast clouds","Feels_like":-20.05,"Sunrise":1637762358,"Sunset":1637794366,"Lon":-99.7617,"Lat":48.0419},"190":{"County":"Bent","State":"CO","Zipcode":81038,"Name":"Fort Lyon","Max_temp":8.29,"Min_temp":6.35,"Description":"overcast clouds","Feels_like":3.46,"Sunrise":1637761377,"Sunset":1637796937,"Lon":-103.0725,"Lat":37.9555},"191":{"County":"Benton","State":"AR","Zipcode":72712,"Name":"Bentonville","Max_temp":17.42,"Min_temp":15.47,"Description":"overcast clouds","Feels_like":15.62,"Sunrise":1637759021,"Sunset":1637795044,"Lon":-94.2224,"Lat":36.3577},"192":{"County":"Benton","State":"IA","Zipcode":52206,"Name":"Atkins","Max_temp":11.51,"Min_temp":6.14,"Description":"clear sky","Feels_like":6.36,"Sunrise":1637759321,"Sunset":1637793617,"Lon":-91.876,"Lat":41.9881},"193":{"County":"Benton","State":"IN","Zipcode":47917,"Name":"Ambia","Max_temp":11.04,"Min_temp":8.81,"Description":"overcast clouds","Feels_like":9.33,"Sunrise":1637758019,"Sunset":1637792809,"Lon":-87.4796,"Lat":40.4793},"194":{"County":"Benton","State":"MN","Zipcode":56329,"Name":"Foley","Max_temp":0.58,"Min_temp":-3.1,"Description":"clear sky","Feels_like":-6.51,"Sunrise":1637760477,"Sunset":1637793440,"Lon":-93.9148,"Lat":45.6919},"195":{"County":"Benton","State":"MO","Zipcode":65325,"Name":"Cole Camp","Max_temp":17.45,"Min_temp":14.59,"Description":"overcast clouds","Feels_like":16.18,"Sunrise":1637759078,"Sunset":1637794493,"Lon":-93.1915,"Lat":38.4531},"196":{"County":"Benton","State":"MS","Zipcode":38603,"Name":"Ashland","Max_temp":14.58,"Min_temp":9.6,"Description":"broken clouds","Feels_like":10.74,"Sunrise":1637757591,"Sunset":1637794035,"Lon":-89.1427,"Lat":34.8346},"197":{"County":"Benton","State":"OR","Zipcode":97324,"Name":"Alsea","Max_temp":8.86,"Min_temp":3.34,"Description":"overcast clouds","Feels_like":5.38,"Sunrise":1637767361,"Sunset":1637800813,"Lon":-123.6089,"Lat":44.3691},"198":{"County":"Benton","State":"TN","Zipcode":38221,"Name":"Big Sandy","Max_temp":13.84,"Min_temp":11.25,"Description":"overcast clouds","Feels_like":11.35,"Sunrise":1637757524,"Sunset":1637793584,"Lon":-88.0627,"Lat":36.2285},"199":{"County":"Benton","State":"WA","Zipcode":99320,"Name":"Benton City","Max_temp":8.67,"Min_temp":4.77,"Description":"clear sky","Feels_like":5.79,"Sunrise":1637766736,"Sunset":1637799461,"Lon":-119.4913,"Lat":46.2806},"200":{"County":"Benzie","State":"MI","Zipcode":49616,"Name":"Benzonia","Max_temp":8.97,"Min_temp":6.27,"Description":"clear sky","Feels_like":5.19,"Sunrise":1637758392,"Sunset":1637791772,"Lon":-86.0961,"Lat":44.5955},"201":{"County":"Bergen","State":"NJ","Zipcode":7010,"Name":"Cliffside Park","Max_temp":6.86,"Min_temp":-0.92,"Description":"clear sky","Feels_like":3.98,"Sunrise":1637754833,"Sunset":1637789518,"Lon":-73.988,"Lat":40.8222},"202":{"County":"Berkeley","State":"SC","Zipcode":29410,"Name":"Hanahan","Max_temp":8.03,"Min_temp":3.06,"Description":"clear sky","Feels_like":4.39,"Sunrise":1637755149,"Sunset":1637792099,"Lon":-80.022,"Lat":32.9185},"203":{"County":"Berkeley","State":"WV","Zipcode":25401,"Name":"Martinsburg","Max_temp":5.45,"Min_temp":-0.62,"Description":"clear sky","Feels_like":2.1,"Sunrise":1637755575,"Sunset":1637790689,"Lon":-77.9727,"Lat":39.4567},"204":{"County":"Berks","State":"PA","Zipcode":18056,"Name":"Hereford","Max_temp":5.05,"Min_temp":-1.09,"Description":"clear sky","Feels_like":2.05,"Sunrise":1637755148,"Sunset":1637789952,"Lon":-75.5491,"Lat":40.4491},"205":{"County":"Berkshire","State":"MA","Zipcode":1201,"Name":"Pittsfield","Max_temp":0.8,"Min_temp":-4.36,"Description":"clear sky","Feels_like":-1.96,"Sunrise":1637754925,"Sunset":1637789070,"Lon":-73.2471,"Lat":42.4531},"206":{"County":"Bernalillo","State":"NM","Zipcode":87008,"Name":"Cedar Crest","Max_temp":8.21,"Min_temp":3.91,"Description":"scattered clouds","Feels_like":6.67,"Sunrise":1637761767,"Sunset":1637798127,"Lon":-106.3617,"Lat":35.1285},"207":{"County":"Berrien","State":"GA","Zipcode":31622,"Name":"Alapaha","Max_temp":11.93,"Min_temp":7.23,"Description":"few clouds","Feels_like":6.9,"Sunrise":1637755722,"Sunset":1637793057,"Lon":-83.2132,"Lat":31.394},"208":{"County":"Berrien","State":"MI","Zipcode":49022,"Name":"Benton Harbor","Max_temp":11.64,"Min_temp":8.25,"Description":"clear sky","Feels_like":9.29,"Sunrise":1637758032,"Sunset":1637792289,"Lon":-86.4234,"Lat":42.1086},"209":{"County":"Bertie","State":"NC","Zipcode":27847,"Name":"Kelford","Max_temp":2.1,"Min_temp":-0.88,"Description":"clear sky","Feels_like":0.05,"Sunrise":1637754907,"Sunset":1637790981,"Lon":-77.1898,"Lat":36.1871},"210":{"County":"Bethel","State":"AK","Zipcode":99551,"Name":"Akiachak","Max_temp":-18.82,"Min_temp":-18.99,"Description":"few clouds","Feels_like":-25.99,"Sunrise":1637781232,"Sunset":1637805101,"Lon":-161.4314,"Lat":60.9094},"211":{"County":"Bexar","State":"TX","Zipcode":78002,"Name":"Atascosa","Max_temp":24.54,"Min_temp":20.31,"Description":"overcast clouds","Feels_like":23.02,"Sunrise":1637759194,"Sunset":1637797041,"Lon":-98.7421,"Lat":29.2705},"212":{"County":"Bibb","State":"AL","Zipcode":35034,"Name":"Brent","Max_temp":12.69,"Min_temp":8.4,"Description":"scattered clouds","Feels_like":8.56,"Sunrise":1637756877,"Sunset":1637793822,"Lon":-87.2114,"Lat":32.9357},"213":{"County":"Bibb","State":"GA","Zipcode":31052,"Name":"Lizella","Max_temp":8.9,"Min_temp":5.69,"Description":"clear sky","Feels_like":7.16,"Sunrise":1637756044,"Sunset":1637793030,"Lon":-83.825,"Lat":32.7773},"214":{"County":"Bienville","State":"LA","Zipcode":71001,"Name":"Arcadia","Max_temp":20.55,"Min_temp":17.78,"Description":"broken clouds","Feels_like":18.18,"Sunrise":1637758201,"Sunset":1637795242,"Lon":-92.9245,"Lat":32.5556},"215":{"County":"Big","State":"MT","Zipcode":59016,"Name":"Busby","Max_temp":-5.69,"Min_temp":-5.69,"Description":"overcast clouds","Feels_like":-5.69,"Sunrise":1637763563,"Sunset":1637796575,"Lon":-106.8723,"Lat":45.5541},"216":{"County":"Big","State":"WY","Zipcode":82410,"Name":"Basin","Max_temp":2.89,"Min_temp":0.35,"Description":"few clouds","Feels_like":2.22,"Sunrise":1637763624,"Sunset":1637797077,"Lon":-108.0438,"Lat":44.3788},"217":{"County":"Big","State":"MN","Zipcode":56210,"Name":"Barry","Max_temp":-3.9,"Min_temp":-8.82,"Description":"broken clouds","Feels_like":-14.05,"Sunrise":1637761087,"Sunset":1637794100,"Lon":-96.5589,"Lat":45.5593},"218":{"County":"Billings","State":"ND","Zipcode":58627,"Name":"Fairfield","Max_temp":-9.12,"Min_temp":-13.13,"Description":"broken clouds","Feels_like":-17.17,"Sunrise":1637763040,"Sunset":1637795386,"Lon":-103.3056,"Lat":47.2329},"219":{"County":"Bingham","State":"ID","Zipcode":83210,"Name":"Aberdeen","Max_temp":1.08,"Min_temp":-9.36,"Description":"few clouds","Feels_like":-3.65,"Sunrise":1637764531,"Sunset":1637798473,"Lon":-112.84,"Lat":43.0049},"220":{"County":"Black","State":"IA","Zipcode":50613,"Name":"Cedar Falls","Max_temp":7.86,"Min_temp":5.46,"Description":"broken clouds","Feels_like":6.63,"Sunrise":1637759550,"Sunset":1637793664,"Lon":-92.4497,"Lat":42.5241},"221":{"County":"Blackford","State":"IN","Zipcode":47348,"Name":"Hartford City","Max_temp":10.15,"Min_temp":6.57,"Description":"overcast clouds","Feels_like":5.48,"Sunrise":1637757509,"Sunset":1637792309,"Lon":-85.3758,"Lat":40.4541},"222":{"County":"Bladen","State":"NC","Zipcode":28306,"Name":"Fayetteville","Max_temp":5.03,"Min_temp":1.25,"Description":"clear sky","Feels_like":3.7,"Sunrise":1637755163,"Sunset":1637791563,"Lon":-78.9364,"Lat":35.0019},"223":{"County":"Blaine","State":"ID","Zipcode":83313,"Name":"Bellevue","Max_temp":-0.21,"Min_temp":-12.36,"Description":"clear sky","Feels_like":-11.93,"Sunrise":1637764946,"Sunset":1637798735,"Lon":-114.2498,"Lat":43.4397},"224":{"County":"Blaine","State":"MT","Zipcode":59523,"Name":"Chinook","Max_temp":-10.67,"Min_temp":-10.67,"Description":"broken clouds","Feels_like":-16.12,"Sunrise":1637764748,"Sunset":1637796519,"Lon":-109.2225,"Lat":48.5799},"225":{"County":"Blaine","State":"NE","Zipcode":68821,"Name":"Brewster","Max_temp":1.06,"Min_temp":0.85,"Description":"overcast clouds","Feels_like":-5.26,"Sunrise":1637761225,"Sunset":1637795532,"Lon":-99.8292,"Lat":41.9467},"226":{"County":"Blaine","State":"OK","Zipcode":73040,"Name":"Geary","Max_temp":18.42,"Min_temp":15.05,"Description":"overcast clouds","Feels_like":14.03,"Sunrise":1637759920,"Sunset":1637796147,"Lon":-98.3905,"Lat":35.6217},"227":{"County":"Blair","State":"PA","Zipcode":16601,"Name":"Altoona","Max_temp":4.41,"Min_temp":-2.87,"Description":"overcast clouds","Feels_like":-0.32,"Sunrise":1637755847,"Sunset":1637790627,"Lon":-78.4089,"Lat":40.5209},"228":{"County":"Blanco","State":"TX","Zipcode":78606,"Name":"Blanco","Max_temp":22.3,"Min_temp":18.36,"Description":"overcast clouds","Feels_like":20.15,"Sunrise":1637759212,"Sunset":1637796864,"Lon":-98.4107,"Lat":30.0874},"229":{"County":"Bland","State":"VA","Zipcode":24314,"Name":"Bastian","Max_temp":4.0,"Min_temp":-4.56,"Description":"clear sky","Feels_like":-2.69,"Sunrise":1637756007,"Sunset":1637791805,"Lon":-81.1989,"Lat":37.1574},"230":{"County":"Bleckley","State":"GA","Zipcode":31014,"Name":"Cochran","Max_temp":9.05,"Min_temp":4.87,"Description":"clear sky","Feels_like":4.03,"Sunrise":1637755875,"Sunset":1637792958,"Lon":-83.3229,"Lat":32.3981},"231":{"County":"Bledsoe","State":"TN","Zipcode":37367,"Name":"Pikeville","Max_temp":8.68,"Min_temp":1.05,"Description":"broken clouds","Feels_like":3.2,"Sunrise":1637756756,"Sunset":1637792981,"Lon":-85.2077,"Lat":35.6408},"232":{"County":"Blount","State":"AL","Zipcode":35013,"Name":"Allgood","Max_temp":11.0,"Min_temp":3.97,"Description":"scattered clouds","Feels_like":5.31,"Sunrise":1637756823,"Sunset":1637793511,"Lon":-86.4493,"Lat":33.9222},"233":{"County":"Blount","State":"TN","Zipcode":37701,"Name":"Alcoa","Max_temp":8.29,"Min_temp":2.14,"Description":"broken clouds","Feels_like":5.72,"Sunrise":1637756482,"Sunset":1637792666,"Lon":-83.9809,"Lat":35.7852},"234":{"County":"Blue","State":"MN","Zipcode":56001,"Name":"Mankato","Max_temp":2.35,"Min_temp":-0.54,"Description":"overcast clouds","Feels_like":-4.79,"Sunrise":1637760209,"Sunset":1637793748,"Lon":-93.996,"Lat":44.1538},"235":{"County":"Boise","State":"ID","Zipcode":83602,"Name":"Banks","Max_temp":4.75,"Min_temp":-0.09,"Description":"few clouds","Feels_like":2.04,"Sunrise":1637765511,"Sunset":1637799070,"Lon":-116.124,"Lat":44.0804},"236":{"County":"Bolivar","State":"MS","Zipcode":38702,"Name":"Greenville","Max_temp":16.01,"Min_temp":14.49,"Description":"clear sky","Feels_like":15.21,"Sunrise":1637757849,"Sunset":1637794666,"Lon":-90.9946,"Lat":33.4258},"237":{"County":"Bollinger","State":"MO","Zipcode":63662,"Name":"Patton","Max_temp":13.92,"Min_temp":12.71,"Description":"overcast clouds","Feels_like":11.67,"Sunrise":1637758179,"Sunset":1637793883,"Lon":-90.05,"Lat":37.4733},"238":{"County":"Bon","State":"SD","Zipcode":57059,"Name":"Scotland","Max_temp":0.82,"Min_temp":-0.64,"Description":"overcast clouds","Feels_like":-5.85,"Sunrise":1637760921,"Sunset":1637794828,"Lon":-97.7296,"Lat":43.1212},"239":{"County":"Bond","State":"IL","Zipcode":62086,"Name":"Sorento","Max_temp":15.61,"Min_temp":12.36,"Description":"overcast clouds","Feels_like":12.74,"Sunrise":1637758285,"Sunset":1637793545,"Lon":-89.5653,"Lat":38.9693},"240":{"County":"Bonner","State":"ID","Zipcode":83804,"Name":"Blanchard","Max_temp":3.13,"Min_temp":-0.56,"Description":"overcast clouds","Feels_like":0.51,"Sunrise":1637766493,"Sunset":1637798503,"Lon":-116.9909,"Lat":48.0223},"241":{"County":"Bonneville","State":"ID","Zipcode":83285,"Name":"Wayan","Max_temp":-4.77,"Min_temp":-7.27,"Description":"scattered clouds","Feels_like":-9.65,"Sunrise":1637764154,"Sunset":1637798089,"Lon":-111.2541,"Lat":43.0269},"242":{"County":"Boone","State":"AR","Zipcode":72601,"Name":"Harrison","Max_temp":17.37,"Min_temp":13.36,"Description":"overcast clouds","Feels_like":15.25,"Sunrise":1637758737,"Sunset":1637794792,"Lon":-93.1062,"Lat":36.2417},"243":{"County":"Boone","State":"IA","Zipcode":50036,"Name":"Boone","Max_temp":6.56,"Min_temp":1.95,"Description":"broken clouds","Feels_like":-1.26,"Sunrise":1637759816,"Sunset":1637794084,"Lon":-93.8781,"Lat":42.0694},"244":{"County":"Boone","State":"IL","Zipcode":61008,"Name":"Belvidere","Max_temp":11.27,"Min_temp":8.55,"Description":"overcast clouds","Feels_like":8.05,"Sunrise":1637758640,"Sunset":1637792846,"Lon":-88.8509,"Lat":42.2595},"245":{"County":"Boone","State":"IN","Zipcode":46052,"Name":"Lebanon","Max_temp":11.8,"Min_temp":7.53,"Description":"clear sky","Feels_like":8.63,"Sunrise":1637757706,"Sunset":1637792634,"Lon":-86.4641,"Lat":40.0449},"246":{"County":"Boone","State":"KY","Zipcode":41005,"Name":"Burlington","Max_temp":10.54,"Min_temp":8.26,"Description":"overcast clouds","Feels_like":7.39,"Sunrise":1637757141,"Sunset":1637792388,"Lon":-84.7736,"Lat":39.015},"247":{"County":"Boone","State":"MO","Zipcode":65010,"Name":"Ashland","Max_temp":16.94,"Min_temp":14.34,"Description":"light rain","Feels_like":15.01,"Sunrise":1637758903,"Sunset":1637794217,"Lon":-92.2537,"Lat":38.7878},"248":{"County":"Boone","State":"NE","Zipcode":68620,"Name":"Albion","Max_temp":2.72,"Min_temp":1.34,"Description":"scattered clouds","Feels_like":-4.0,"Sunrise":1637760745,"Sunset":1637795134,"Lon":-97.9991,"Lat":41.7049},"249":{"County":"Boone","State":"WV","Zipcode":25009,"Name":"Ashford","Max_temp":9.23,"Min_temp":1.28,"Description":"overcast clouds","Feels_like":2.34,"Sunrise":1637756280,"Sunset":1637791779,"Lon":-81.7113,"Lat":38.1823},"250":{"County":"Borden","State":"TX","Zipcode":79738,"Name":"Gail","Max_temp":20.36,"Min_temp":17.73,"Description":"overcast clouds","Feels_like":18.34,"Sunrise":1637760273,"Sunset":1637797262,"Lon":-101.45,"Lat":32.7523},"251":{"County":"Bosque","State":"TX","Zipcode":76634,"Name":"Clifton","Max_temp":22.39,"Min_temp":20.01,"Description":"overcast clouds","Feels_like":21.74,"Sunrise":1637759208,"Sunset":1637796441,"Lon":-97.5203,"Lat":31.7918},"252":{"County":"Bossier","State":"LA","Zipcode":71006,"Name":"Benton","Max_temp":21.07,"Min_temp":19.06,"Description":"overcast clouds","Feels_like":20.18,"Sunrise":1637758403,"Sunset":1637795407,"Lon":-93.691,"Lat":32.6976},"253":{"County":"Botetourt","State":"VA","Zipcode":24064,"Name":"Blue Ridge","Max_temp":5.53,"Min_temp":-0.73,"Description":"clear sky","Feels_like":-0.09,"Sunrise":1637755709,"Sunset":1637791440,"Lon":-79.8172,"Lat":37.3885},"254":{"County":"Bottineau","State":"ND","Zipcode":58318,"Name":"Bottineau","Max_temp":-16.69,"Min_temp":-18.03,"Description":"overcast clouds","Feels_like":-20.43,"Sunrise":1637762694,"Sunset":1637794352,"Lon":-100.4329,"Lat":48.8451},"255":{"County":"Boulder","State":"CO","Zipcode":80025,"Name":"Eldorado Springs","Max_temp":0.55,"Min_temp":-5.26,"Description":"snow","Feels_like":-2.02,"Sunrise":1637762209,"Sunset":1637797168,"Lon":-105.288,"Lat":39.9324},"256":{"County":"Boundary","State":"ID","Zipcode":83805,"Name":"Bonners Ferry","Max_temp":1.07,"Min_temp":-0.5,"Description":"overcast clouds","Feels_like":-1.51,"Sunrise":1637766489,"Sunset":1637798191,"Lon":-116.3322,"Lat":48.7306},"257":{"County":"Bourbon","State":"KS","Zipcode":66701,"Name":"Fort Scott","Max_temp":17.38,"Min_temp":14.73,"Description":"overcast clouds","Feels_like":16.42,"Sunrise":1637759350,"Sunset":1637794952,"Lon":-94.7148,"Lat":37.8216},"258":{"County":"Bourbon","State":"KY","Zipcode":40348,"Name":"Millersburg","Max_temp":10.92,"Min_temp":8.14,"Description":"overcast clouds","Feels_like":6.85,"Sunrise":1637756883,"Sunset":1637792347,"Lon":-84.1513,"Lat":38.2963},"259":{"County":"Bowie","State":"TX","Zipcode":75501,"Name":"Texarkana","Max_temp":21.09,"Min_temp":17.99,"Description":"overcast clouds","Feels_like":19.81,"Sunrise":1637758612,"Sunset":1637795432,"Lon":-94.1774,"Lat":33.4113},"260":{"County":"Bowman","State":"ND","Zipcode":58623,"Name":"Bowman","Max_temp":-7.01,"Min_temp":-8.99,"Description":"broken clouds","Feels_like":-14.39,"Sunrise":1637762850,"Sunset":1637795622,"Lon":-103.402,"Lat":46.1733},"261":{"County":"Box","State":"NE","Zipcode":69301,"Name":"Alliance","Max_temp":-1.01,"Min_temp":-1.1,"Description":"overcast clouds","Feels_like":-1.05,"Sunrise":1637761988,"Sunset":1637796238,"Lon":-102.888,"Lat":42.1149},"262":{"County":"Box","State":"UT","Zipcode":84301,"Name":"Bear River City","Max_temp":4.94,"Min_temp":-0.4,"Description":"clear sky","Feels_like":2.63,"Sunrise":1637764122,"Sunset":1637798538,"Lon":-112.1241,"Lat":41.6093},"263":{"County":"Boyd","State":"KY","Zipcode":41101,"Name":"Ashland","Max_temp":6.37,"Min_temp":2.08,"Description":"clear sky","Feels_like":2.84,"Sunrise":1637756548,"Sunset":1637791960,"Lon":-82.6461,"Lat":38.4722},"264":{"County":"Boyd","State":"NE","Zipcode":68719,"Name":"Bristow","Max_temp":1.48,"Min_temp":0.2,"Description":"overcast clouds","Feels_like":-5.08,"Sunrise":1637761094,"Sunset":1637795060,"Lon":-98.5721,"Lat":42.9484},"265":{"County":"Boyle","State":"KY","Zipcode":40422,"Name":"Danville","Max_temp":10.62,"Min_temp":7.08,"Description":"clear sky","Feels_like":8.24,"Sunrise":1637756937,"Sunset":1637792592,"Lon":-84.7747,"Lat":37.6465},"266":{"County":"Bracken","State":"KY","Zipcode":41002,"Name":"Augusta","Max_temp":10.59,"Min_temp":8.56,"Description":"overcast clouds","Feels_like":7.46,"Sunrise":1637756916,"Sunset":1637792240,"Lon":-83.9954,"Lat":38.763},"267":{"County":"Bradford","State":"FL","Zipcode":32026,"Name":"Raiford","Max_temp":14.23,"Min_temp":11.57,"Description":"clear sky","Feels_like":12.22,"Sunrise":1637755315,"Sunset":1637792975,"Lon":-82.1927,"Lat":30.0699},"268":{"County":"Bradford","State":"PA","Zipcode":16914,"Name":"Columbia Cross Roads","Max_temp":2.4,"Min_temp":-2.83,"Description":"broken clouds","Feels_like":-2.51,"Sunrise":1637755675,"Sunset":1637790017,"Lon":-76.7825,"Lat":41.8638},"269":{"County":"Bradley","State":"AR","Zipcode":71631,"Name":"Banks","Max_temp":18.98,"Min_temp":15.54,"Description":"overcast clouds","Feels_like":16.25,"Sunrise":1637758169,"Sunset":1637794954,"Lon":-92.2604,"Lat":33.5497},"270":{"County":"Bradley","State":"TN","Zipcode":37310,"Name":"Charleston","Max_temp":8.69,"Min_temp":2.72,"Description":"clear sky","Feels_like":3.47,"Sunrise":1637756598,"Sunset":1637792928,"Lon":-84.7666,"Lat":35.2556},"271":{"County":"Branch","State":"MI","Zipcode":49028,"Name":"Bronson","Max_temp":9.14,"Min_temp":7.59,"Description":"clear sky","Feels_like":6.68,"Sunrise":1637757693,"Sunset":1637792033,"Lon":-85.1838,"Lat":41.8643},"272":{"County":"Brantley","State":"GA","Zipcode":31542,"Name":"Hoboken","Max_temp":11.79,"Min_temp":8.16,"Description":"clear sky","Feels_like":9.38,"Sunrise":1637755429,"Sunset":1637792826,"Lon":-82.1207,"Lat":31.1431},"273":{"County":"Braxton","State":"WV","Zipcode":25063,"Name":"Duck","Max_temp":5.12,"Min_temp":0.49,"Description":"overcast clouds","Feels_like":0.01,"Sunrise":1637756161,"Sunset":1637791545,"Lon":-80.9764,"Lat":38.5647},"274":{"County":"Brazoria","State":"TX","Zipcode":77422,"Name":"Brazoria","Max_temp":23.42,"Min_temp":21.14,"Description":"overcast clouds","Feels_like":22.85,"Sunrise":1637758407,"Sunset":1637796314,"Lon":-95.5867,"Lat":29.0236},"275":{"County":"Brazos","State":"TX","Zipcode":77801,"Name":"Bryan","Max_temp":23.85,"Min_temp":20.94,"Description":"overcast clouds","Feels_like":22.75,"Sunrise":1637758787,"Sunset":1637796307,"Lon":-96.3662,"Lat":30.6327},"276":{"County":"Breathitt","State":"KY","Zipcode":41317,"Name":"Clayhole","Max_temp":11.29,"Min_temp":0.39,"Description":"clear sky","Feels_like":8.94,"Sunrise":1637756527,"Sunset":1637792241,"Lon":-83.1892,"Lat":37.4476},"277":{"County":"Breckinridge","State":"KY","Zipcode":40111,"Name":"Cloverport","Max_temp":12.88,"Min_temp":8.75,"Description":"overcast clouds","Feels_like":10.32,"Sunrise":1637757401,"Sunset":1637793019,"Lon":-86.6282,"Lat":37.7731},"278":{"County":"Bremer","State":"IA","Zipcode":50622,"Name":"Denver","Max_temp":7.76,"Min_temp":5.72,"Description":"broken clouds","Feels_like":2.84,"Sunrise":1637759550,"Sunset":1637793613,"Lon":-92.3417,"Lat":42.6731},"279":{"County":"Brevard","State":"FL","Zipcode":32754,"Name":"Mims","Max_temp":21.07,"Min_temp":15.58,"Description":"overcast clouds","Feels_like":18.12,"Sunrise":1637754833,"Sunset":1637792819,"Lon":-80.8663,"Lat":28.6974},"280":{"County":"Brewster","State":"TX","Zipcode":79830,"Name":"Alpine","Max_temp":15.35,"Min_temp":13.72,"Description":"clear sky","Feels_like":12.89,"Sunrise":1637760492,"Sunset":1637798101,"Lon":-103.6541,"Lat":30.2631},"281":{"County":"Briscoe","State":"TX","Zipcode":79255,"Name":"Quitaque","Max_temp":16.68,"Min_temp":15.85,"Description":"overcast clouds","Feels_like":14.71,"Sunrise":1637760389,"Sunset":1637796952,"Lon":-101.0465,"Lat":34.3796},"282":{"County":"Bristol","State":"AK","Zipcode":99613,"Name":"King Salmon","Max_temp":-16.91,"Min_temp":-17.99,"Description":"overcast clouds","Feels_like":-24.99,"Sunrise":1637779107,"Sunset":1637804935,"Lon":-156.6614,"Lat":58.6883},"283":{"County":"Bristol","State":"MA","Zipcode":2048,"Name":"Mansfield","Max_temp":4.17,"Min_temp":-1.38,"Description":"clear sky","Feels_like":1.73,"Sunrise":1637754365,"Sunset":1637788656,"Lon":-71.2178,"Lat":42.0212},"284":{"County":"Bristol","State":"RI","Zipcode":2806,"Name":"Barrington","Max_temp":4.47,"Min_temp":-0.64,"Description":"few clouds","Feels_like":-0.19,"Sunrise":1637754343,"Sunset":1637788726,"Lon":-71.3175,"Lat":41.7443},"285":{"County":"Bristol","State":"VA","Zipcode":24201,"Name":"Bristol","Max_temp":6.73,"Min_temp":-0.06,"Description":"clear sky","Feels_like":0.24,"Sunrise":1637756166,"Sunset":1637792118,"Lon":-82.1823,"Lat":36.6181},"286":{"County":"Broadwater","State":"MT","Zipcode":59643,"Name":"Toston","Max_temp":1.66,"Min_temp":-2.1,"Description":"clear sky","Feels_like":-3.31,"Sunrise":1637764816,"Sunset":1637797587,"Lon":-111.5899,"Lat":46.1709},"287":{"County":"Bronx","State":"NY","Zipcode":10451,"Name":"Bronx","Max_temp":7.28,"Min_temp":-0.37,"Description":"clear sky","Feels_like":4.52,"Sunrise":1637754817,"Sunset":1637789502,"Lon":-73.9217,"Lat":40.8222},"288":{"County":"Brooke","State":"WV","Zipcode":26030,"Name":"Beech Bottom","Max_temp":6.59,"Min_temp":1.43,"Description":"clear sky","Feels_like":1.18,"Sunrise":1637756338,"Sunset":1637791211,"Lon":-80.6513,"Lat":40.2259},"289":{"County":"Brookings","State":"SD","Zipcode":57002,"Name":"Aurora","Max_temp":-1.81,"Min_temp":-5.35,"Description":"overcast clouds","Feels_like":-10.12,"Sunrise":1637760883,"Sunset":1637794374,"Lon":-96.7043,"Lat":44.2838},"290":{"County":"Brooks","State":"GA","Zipcode":31625,"Name":"Barney","Max_temp":11.89,"Min_temp":8.17,"Description":"few clouds","Feels_like":8.37,"Sunrise":1637755749,"Sunset":1637793179,"Lon":-83.5219,"Lat":31.0074},"291":{"County":"Brooks","State":"TX","Zipcode":78353,"Name":"Encino","Max_temp":23.79,"Min_temp":22.87,"Description":"overcast clouds","Feels_like":23.26,"Sunrise":1637758790,"Sunset":1637797181,"Lon":-98.1922,"Lat":26.9249},"292":{"County":"Broome","State":"NY","Zipcode":13744,"Name":"Castle Creek","Max_temp":2.33,"Min_temp":-2.58,"Description":"clear sky","Feels_like":-1.74,"Sunrise":1637755531,"Sunset":1637789741,"Lon":-75.9087,"Lat":42.2568},"293":{"County":"Broomfield","State":"CO","Zipcode":80020,"Name":"Broomfield","Max_temp":3.44,"Min_temp":-2.36,"Description":"snow","Feels_like":0.92,"Sunrise":1637762154,"Sunset":1637797115,"Lon":-105.0609,"Lat":39.9245},"294":{"County":"Broward","State":"FL","Zipcode":33004,"Name":"Dania","Max_temp":22.79,"Min_temp":20.57,"Description":"broken clouds","Feels_like":21.72,"Sunrise":1637754357,"Sunset":1637792949,"Lon":-80.1447,"Lat":26.0476},"295":{"County":"Brown","State":"IL","Zipcode":62353,"Name":"Mount Sterling","Max_temp":16.01,"Min_temp":10.99,"Description":"light intensity drizzle","Feels_like":12.68,"Sunrise":1637758723,"Sunset":1637793671,"Lon":-90.7414,"Lat":39.9803},"296":{"County":"Brown","State":"IN","Zipcode":46160,"Name":"Morgantown","Max_temp":12.6,"Min_temp":9.26,"Description":"overcast clouds","Feels_like":9.69,"Sunrise":1637757556,"Sunset":1637792696,"Lon":-86.2803,"Lat":39.3628},"297":{"County":"Brown","State":"KS","Zipcode":66424,"Name":"Everest","Max_temp":12.07,"Min_temp":7.45,"Description":"overcast clouds","Feels_like":5.29,"Sunrise":1637759800,"Sunset":1637794837,"Lon":-95.4138,"Lat":39.688},"298":{"County":"Brown","State":"MN","Zipcode":56019,"Name":"Comfrey","Max_temp":0.82,"Min_temp":-2.6,"Description":"overcast clouds","Feels_like":-8.52,"Sunrise":1637760421,"Sunset":1637793976,"Lon":-94.9134,"Lat":44.1111},"299":{"County":"Brown","State":"NE","Zipcode":69210,"Name":"Ainsworth","Max_temp":0.12,"Min_temp":-1.78,"Description":"overcast clouds","Feels_like":-6.88,"Sunrise":1637761333,"Sunset":1637795440,"Lon":-99.8615,"Lat":42.5403},"300":{"County":"Brown","State":"OH","Zipcode":45101,"Name":"Aberdeen","Max_temp":10.88,"Min_temp":6.06,"Description":"clear sky","Feels_like":7.15,"Sunrise":1637756846,"Sunset":1637792198,"Lon":-83.7637,"Lat":38.6709},"301":{"County":"Brown","State":"SD","Zipcode":57401,"Name":"Aberdeen","Max_temp":-4.01,"Min_temp":-5.94,"Description":"overcast clouds","Feels_like":-10.61,"Sunrise":1637761532,"Sunset":1637794580,"Lon":-98.4856,"Lat":45.4661},"302":{"County":"Brown","State":"TX","Zipcode":76432,"Name":"Blanket","Max_temp":20.18,"Min_temp":19.2,"Description":"few clouds","Feels_like":19.57,"Sunrise":1637759522,"Sunset":1637796756,"Lon":-98.8311,"Lat":31.7882},"303":{"County":"Brown","State":"WI","Zipcode":54115,"Name":"De Pere","Max_temp":7.74,"Min_temp":2.69,"Description":"clear sky","Feels_like":5.63,"Sunrise":1637758840,"Sunset":1637792277,"Lon":-88.0806,"Lat":44.4388},"304":{"County":"Brule","State":"SD","Zipcode":57325,"Name":"Chamberlain","Max_temp":1.1,"Min_temp":-0.79,"Description":"overcast clouds","Feels_like":-7.23,"Sunrise":1637761421,"Sunset":1637795088,"Lon":-99.3118,"Lat":43.7953},"305":{"County":"Brunswick","State":"NC","Zipcode":28420,"Name":"Ash","Max_temp":8.38,"Min_temp":0.95,"Description":"clear sky","Feels_like":3.72,"Sunrise":1637754934,"Sunset":1637791585,"Lon":-78.5056,"Lat":34.0659},"306":{"County":"Brunswick","State":"VA","Zipcode":23821,"Name":"Alberta","Max_temp":3.64,"Min_temp":-0.48,"Description":"clear sky","Feels_like":1.67,"Sunrise":1637755177,"Sunset":1637791055,"Lon":-77.9055,"Lat":36.8806},"307":{"County":"Bryan","State":"GA","Zipcode":31308,"Name":"Ellabell","Max_temp":9.49,"Min_temp":4.23,"Description":"clear sky","Feels_like":6.01,"Sunrise":1637755402,"Sunset":1637792554,"Lon":-81.4983,"Lat":32.1273},"308":{"County":"Bryan","State":"OK","Zipcode":73449,"Name":"Mead","Max_temp":21.19,"Min_temp":19.08,"Description":"overcast clouds","Feels_like":19.96,"Sunrise":1637759253,"Sunset":1637795920,"Lon":-96.5299,"Lat":33.9944},"309":{"County":"Buchanan","State":"IA","Zipcode":50607,"Name":"Aurora","Max_temp":9.45,"Min_temp":5.65,"Description":"overcast clouds","Feels_like":4.24,"Sunrise":1637759394,"Sunset":1637793476,"Lon":-91.7335,"Lat":42.6203},"310":{"County":"Buchanan","State":"MO","Zipcode":64401,"Name":"Agency","Max_temp":14.55,"Min_temp":10.5,"Description":"overcast clouds","Feels_like":10.58,"Sunrise":1637759629,"Sunset":1637794674,"Lon":-94.717,"Lat":39.6662},"311":{"County":"Buchanan","State":"VA","Zipcode":24603,"Name":"Big Rock","Max_temp":11.02,"Min_temp":1.75,"Description":"overcast clouds","Feels_like":5.65,"Sunrise":1637756275,"Sunset":1637792016,"Lon":-82.1968,"Lat":37.3532},"312":{"County":"Buckingham","State":"VA","Zipcode":23004,"Name":"Arvonia","Max_temp":4.14,"Min_temp":0.02,"Description":"broken clouds","Feels_like":-0.28,"Sunrise":1637755407,"Sunset":1637791057,"Lon":-78.3889,"Lat":37.6714},"313":{"County":"Bucks","State":"PA","Zipcode":18077,"Name":"Riegelsville","Max_temp":5.11,"Min_temp":-0.03,"Description":"broken clouds","Feels_like":2.84,"Sunrise":1637755090,"Sunset":1637789852,"Lon":-75.2191,"Lat":40.5782},"314":{"County":"Buena","State":"IA","Zipcode":50510,"Name":"Albert City","Max_temp":1.8,"Min_temp":-1.42,"Description":"overcast clouds","Feels_like":-5.72,"Sunrise":1637760202,"Sunset":1637794228,"Lon":-94.9824,"Lat":42.7784},"315":{"County":"Buena","State":"VA","Zipcode":24416,"Name":"Buena Vista","Max_temp":5.4,"Min_temp":-0.87,"Description":"overcast clouds","Feels_like":2.5,"Sunrise":1637755648,"Sunset":1637791278,"Lon":-79.3523,"Lat":37.7396},"316":{"County":"Buffalo","State":"NE","Zipcode":68812,"Name":"Amherst","Max_temp":2.99,"Min_temp":1.19,"Description":"overcast clouds","Feels_like":-4.65,"Sunrise":1637760908,"Sunset":1637795576,"Lon":-99.2609,"Lat":40.8495},"317":{"County":"Buffalo","State":"SD","Zipcode":57339,"Name":"Fort Thompson","Max_temp":-0.57,"Min_temp":-0.57,"Description":"overcast clouds","Feels_like":-6.46,"Sunrise":1637761487,"Sunset":1637795062,"Lon":-99.3973,"Lat":44.0517},"318":{"County":"Buffalo","State":"WI","Zipcode":54610,"Name":"Alma","Max_temp":5.84,"Min_temp":0.97,"Description":"overcast clouds","Feels_like":-1.06,"Sunrise":1637759733,"Sunset":1637793173,"Lon":-91.8079,"Lat":44.4294},"319":{"County":"Bullitt","State":"KY","Zipcode":40047,"Name":"Mount Washington","Max_temp":11.82,"Min_temp":7.89,"Description":"overcast clouds","Feels_like":7.51,"Sunrise":1637757184,"Sunset":1637792722,"Lon":-85.5586,"Lat":38.0452},"320":{"County":"Bulloch","State":"GA","Zipcode":30415,"Name":"Brooklet","Max_temp":9.4,"Min_temp":4.14,"Description":"clear sky","Feels_like":4.12,"Sunrise":1637755454,"Sunset":1637792564,"Lon":-81.628,"Lat":32.294},"321":{"County":"Bullock","State":"AL","Zipcode":36029,"Name":"Fitzpatrick","Max_temp":10.95,"Min_temp":6.93,"Description":"few clouds","Feels_like":7.6,"Sunrise":1637756468,"Sunset":1637793596,"Lon":-85.8888,"Lat":32.2165},"322":{"County":"Buncombe","State":"NC","Zipcode":28701,"Name":"Alexander","Max_temp":6.55,"Min_temp":0.07,"Description":"few clouds","Feels_like":1.92,"Sunrise":1637756147,"Sunset":1637792354,"Lon":-82.6311,"Lat":35.7064},"323":{"County":"Bureau","State":"IL","Zipcode":61312,"Name":"Arlington","Max_temp":11.21,"Min_temp":9.13,"Description":"broken clouds","Feels_like":9.07,"Sunrise":1637758593,"Sunset":1637793071,"Lon":-89.2219,"Lat":41.4437},"324":{"County":"Burke","State":"GA","Zipcode":30426,"Name":"Girard","Max_temp":7.49,"Min_temp":3.81,"Description":"clear sky","Feels_like":2.9,"Sunrise":1637755570,"Sunset":1637792488,"Lon":-81.7106,"Lat":33.0437},"325":{"County":"Burke","State":"NC","Zipcode":28612,"Name":"Connelly Springs","Max_temp":6.54,"Min_temp":1.08,"Description":"clear sky","Feels_like":3.57,"Sunrise":1637755883,"Sunset":1637792080,"Lon":-81.5134,"Lat":35.7429},"326":{"County":"Burke","State":"ND","Zipcode":58721,"Name":"Bowbells","Max_temp":-13.41,"Min_temp":-17.1,"Description":"broken clouds","Feels_like":-21.85,"Sunrise":1637763137,"Sunset":1637794798,"Lon":-102.2839,"Lat":48.8378},"327":{"County":"Burleigh","State":"ND","Zipcode":58477,"Name":"Regan","Max_temp":-8.79,"Min_temp":-11.21,"Description":"overcast clouds","Feels_like":-15.79,"Sunrise":1637762355,"Sunset":1637794735,"Lon":-100.5224,"Lat":47.1527},"328":{"County":"Burleson","State":"TX","Zipcode":77836,"Name":"Caldwell","Max_temp":23.71,"Min_temp":21.84,"Description":"overcast clouds","Feels_like":22.77,"Sunrise":1637758858,"Sunset":1637796403,"Lon":-96.7143,"Lat":30.5298},"329":{"County":"Burlington","State":"NJ","Zipcode":8010,"Name":"Beverly","Max_temp":5.53,"Min_temp":0.64,"Description":"clear sky","Feels_like":1.39,"Sunrise":1637754933,"Sunset":1637789861,"Lon":-74.9114,"Lat":40.0565},"330":{"County":"Burnet","State":"TX","Zipcode":78605,"Name":"Bertram","Max_temp":22.27,"Min_temp":18.74,"Description":"clear sky","Feels_like":20.75,"Sunrise":1637759205,"Sunset":1637796699,"Lon":-98.0529,"Lat":30.7411},"331":{"County":"Burnett","State":"WI","Zipcode":54830,"Name":"Danbury","Max_temp":0.46,"Min_temp":-0.89,"Description":"overcast clouds","Feels_like":-2.19,"Sunrise":1637760142,"Sunset":1637792997,"Lon":-92.293,"Lat":45.9726},"332":{"County":"Burt","State":"NE","Zipcode":68019,"Name":"Craig","Max_temp":3.47,"Min_temp":1.79,"Description":"clear sky","Feels_like":-4.62,"Sunrise":1637760370,"Sunset":1637794737,"Lon":-96.3924,"Lat":41.7715},"333":{"County":"Butler","State":"AL","Zipcode":36030,"Name":"Forest Home","Max_temp":9.55,"Min_temp":5.48,"Description":"scattered clouds","Feels_like":6.66,"Sunrise":1637756649,"Sunset":1637793870,"Lon":-86.8372,"Lat":31.8501},"334":{"County":"Butler","State":"IA","Zipcode":50602,"Name":"Allison","Max_temp":6.98,"Min_temp":3.12,"Description":"overcast clouds","Feels_like":1.63,"Sunrise":1637759671,"Sunset":1637793703,"Lon":-92.783,"Lat":42.7615},"335":{"County":"Butler","State":"KS","Zipcode":66840,"Name":"Burns","Max_temp":13.57,"Min_temp":9.65,"Description":"overcast clouds","Feels_like":9.83,"Sunrise":1637759910,"Sunset":1637795423,"Lon":-96.8634,"Lat":38.1222},"336":{"County":"Butler","State":"KY","Zipcode":42261,"Name":"Morgantown","Max_temp":12.21,"Min_temp":10.48,"Description":"broken clouds","Feels_like":10.71,"Sunrise":1637757331,"Sunset":1637793116,"Lon":-86.6859,"Lat":37.2002},"337":{"County":"Butler","State":"MO","Zipcode":63901,"Name":"Poplar Bluff","Max_temp":14.81,"Min_temp":12.0,"Description":"clear sky","Feels_like":12.63,"Sunrise":1637758165,"Sunset":1637794073,"Lon":-90.4166,"Lat":36.7662},"338":{"County":"Butler","State":"NE","Zipcode":68001,"Name":"Abie","Max_temp":3.36,"Min_temp":1.54,"Description":"overcast clouds","Feels_like":-3.67,"Sunrise":1637760435,"Sunset":1637794942,"Lon":-96.9563,"Lat":41.3479},"339":{"County":"Butler","State":"OH","Zipcode":45011,"Name":"Hamilton","Max_temp":10.89,"Min_temp":7.93,"Description":"clear sky","Feels_like":9.74,"Sunrise":1637757140,"Sunset":1637792268,"Lon":-84.5221,"Lat":39.4059},"340":{"County":"Butler","State":"PA","Zipcode":16001,"Name":"Butler","Max_temp":5.88,"Min_temp":0.55,"Description":"clear sky","Feels_like":2.36,"Sunrise":1637756272,"Sunset":1637790934,"Lon":-79.934,"Lat":40.8859},"341":{"County":"Butte","State":"CA","Zipcode":95916,"Name":"Berry Creek","Max_temp":14.1,"Min_temp":9.23,"Description":"clear sky","Feels_like":10.2,"Sunrise":1637766032,"Sunset":1637801066,"Lon":-121.3689,"Lat":39.6776},"342":{"County":"Butte","State":"ID","Zipcode":83213,"Name":"Arco","Max_temp":-2.18,"Min_temp":-2.18,"Description":"clear sky","Feels_like":-5.77,"Sunrise":1637764756,"Sunset":1637798476,"Lon":-113.3176,"Lat":43.6355},"343":{"County":"Butte","State":"SD","Zipcode":57788,"Name":"Vale","Max_temp":-1.08,"Min_temp":-3.75,"Description":"scattered clouds","Feels_like":-8.92,"Sunrise":1637762548,"Sunset":1637795913,"Lon":-103.3795,"Lat":44.6222},"344":{"County":"Butts","State":"GA","Zipcode":30216,"Name":"Flovilla","Max_temp":10.33,"Min_temp":4.17,"Description":"clear sky","Feels_like":5.37,"Sunrise":1637756125,"Sunset":1637792989,"Lon":-83.9079,"Lat":33.25},"345":{"County":"Cabarrus","State":"NC","Zipcode":28025,"Name":"Concord","Max_temp":7.19,"Min_temp":2.21,"Description":"clear sky","Feels_like":4.64,"Sunrise":1637755596,"Sunset":1637791895,"Lon":-80.53,"Lat":35.3716},"346":{"County":"Cabell","State":"WV","Zipcode":25504,"Name":"Barboursville","Max_temp":6.57,"Min_temp":1.81,"Description":"overcast clouds","Feels_like":4.17,"Sunrise":1637756451,"Sunset":1637791888,"Lon":-82.296,"Lat":38.3893},"347":{"County":"Cabo","State":"PR","Zipcode":622,"Name":"Boqueron","Max_temp":27.06,"Min_temp":23.14,"Description":"scattered clouds","Feels_like":26.04,"Sunrise":1637750393,"Sunset":1637790674,"Lon":-67.15,"Lat":17.99},"348":{"County":"Cache","State":"UT","Zipcode":84304,"Name":"Cache Junction","Max_temp":4.53,"Min_temp":-0.82,"Description":"clear sky","Feels_like":1.79,"Sunrise":1637764126,"Sunset":1637798473,"Lon":-111.9982,"Lat":41.8169},"349":{"County":"Caddo","State":"OK","Zipcode":73005,"Name":"Anadarko","Max_temp":19.0,"Min_temp":15.83,"Description":"overcast clouds","Feels_like":17.07,"Sunrise":1637759809,"Sunset":1637796186,"Lon":-98.2429,"Lat":35.0728},"350":{"County":"Caddo","State":"LA","Zipcode":71004,"Name":"Belcher","Max_temp":21.22,"Min_temp":19.08,"Description":"overcast clouds","Feels_like":20.58,"Sunrise":1637758448,"Sunset":1637795438,"Lon":-93.8508,"Lat":32.7544},"351":{"County":"Caguas","State":"PR","Zipcode":725,"Name":"Caguas","Max_temp":26.44,"Min_temp":23.27,"Description":"broken clouds","Feels_like":25.71,"Sunrise":1637750148,"Sunset":1637790382,"Lon":-66.03,"Lat":18.23},"352":{"County":"Calaveras","State":"CA","Zipcode":95222,"Name":"Angels Camp","Max_temp":17.43,"Min_temp":9.0,"Description":"haze","Feels_like":11.08,"Sunrise":1637765597,"Sunset":1637801119,"Lon":-120.5722,"Lat":38.071},"353":{"County":"Calcasieu","State":"LA","Zipcode":70601,"Name":"Lake Charles","Max_temp":20.99,"Min_temp":18.33,"Description":"scattered clouds","Feels_like":19.27,"Sunrise":1637757975,"Sunset":1637795594,"Lon":-93.188,"Lat":30.2285},"354":{"County":"Caldwell","State":"KY","Zipcode":42411,"Name":"Fredonia","Max_temp":14.74,"Min_temp":12.19,"Description":"clear sky","Feels_like":11.62,"Sunrise":1637757651,"Sunset":1637793432,"Lon":-88.0112,"Lat":37.213},"355":{"County":"Caldwell","State":"MO","Zipcode":64624,"Name":"Braymer","Max_temp":15.39,"Min_temp":12.57,"Description":"overcast clouds","Feels_like":12.99,"Sunrise":1637759394,"Sunset":1637794463,"Lon":-93.7887,"Lat":39.5915},"356":{"County":"Caldwell","State":"NC","Zipcode":28630,"Name":"Granite Falls","Max_temp":6.64,"Min_temp":1.1,"Description":"clear sky","Feels_like":3.57,"Sunrise":1637755871,"Sunset":1637792053,"Lon":-81.4306,"Lat":35.7965},"357":{"County":"Caldwell","State":"TX","Zipcode":78616,"Name":"Dale","Max_temp":23.82,"Min_temp":20.59,"Description":"overcast clouds","Feels_like":22.77,"Sunrise":1637758996,"Sunset":1637796681,"Lon":-97.581,"Lat":29.9528},"358":{"County":"Caldwell","State":"LA","Zipcode":71418,"Name":"Columbia","Max_temp":18.34,"Min_temp":15.36,"Description":"broken clouds","Feels_like":16.89,"Sunrise":1637757949,"Sunset":1637795105,"Lon":-92.1177,"Lat":32.1022},"359":{"County":"Caledonia","State":"VT","Zipcode":5042,"Name":"East Ryegate","Max_temp":-0.04,"Min_temp":-5.21,"Description":"clear sky","Feels_like":-3.15,"Sunrise":1637754962,"Sunset":1637788482,"Lon":-72.0996,"Lat":44.2275},"360":{"County":"Calhoun","State":"AL","Zipcode":36201,"Name":"Anniston","Max_temp":7.82,"Min_temp":4.53,"Description":"clear sky","Feels_like":6.42,"Sunrise":1637756641,"Sunset":1637793399,"Lon":-85.8382,"Lat":33.6539},"361":{"County":"Calhoun","State":"AR","Zipcode":71711,"Name":"Camden","Max_temp":19.11,"Min_temp":17.65,"Description":"overcast clouds","Feels_like":17.64,"Sunrise":1637758314,"Sunset":1637795088,"Lon":-92.8426,"Lat":33.589},"362":{"County":"Calhoun","State":"FL","Zipcode":32421,"Name":"Altha","Max_temp":12.12,"Min_temp":7.82,"Description":"few clouds","Feels_like":8.6,"Sunrise":1637756086,"Sunset":1637793633,"Lon":-85.1704,"Lat":30.5319},"363":{"County":"Calhoun","State":"GA","Zipcode":39813,"Name":"Arlington","Max_temp":10.85,"Min_temp":4.86,"Description":"clear sky","Feels_like":5.55,"Sunrise":1637756091,"Sunset":1637793414,"Lon":-84.7241,"Lat":31.442},"364":{"County":"Calhoun","State":"IA","Zipcode":50538,"Name":"Farnhamville","Max_temp":4.79,"Min_temp":0.78,"Description":"overcast clouds","Feels_like":-3.78,"Sunrise":1637759980,"Sunset":1637794181,"Lon":-94.4226,"Lat":42.2692},"365":{"County":"Calhoun","State":"IL","Zipcode":62006,"Name":"Batchtown","Max_temp":16.89,"Min_temp":14.31,"Description":"overcast clouds","Feels_like":15.37,"Sunrise":1637758563,"Sunset":1637793791,"Lon":-90.6591,"Lat":39.0725},"366":{"County":"Calhoun","State":"MI","Zipcode":49011,"Name":"Athens","Max_temp":9.18,"Min_temp":7.63,"Description":"overcast clouds","Feels_like":5.38,"Sunrise":1637757745,"Sunset":1637792004,"Lon":-85.2317,"Lat":42.103},"367":{"County":"Calhoun","State":"MS","Zipcode":38878,"Name":"Vardaman","Max_temp":14.09,"Min_temp":11.83,"Description":"broken clouds","Feels_like":11.81,"Sunrise":1637757481,"Sunset":1637794169,"Lon":-89.1921,"Lat":33.919},"368":{"County":"Calhoun","State":"SC","Zipcode":29030,"Name":"Cameron","Max_temp":7.05,"Min_temp":1.82,"Description":"clear sky","Feels_like":3.54,"Sunrise":1637755398,"Sunset":1637792179,"Lon":-80.7081,"Lat":33.5703},"369":{"County":"Calhoun","State":"TX","Zipcode":77978,"Name":"Point Comfort","Max_temp":24.12,"Min_temp":22.71,"Description":"overcast clouds","Feels_like":23.84,"Sunrise":1637758596,"Sunset":1637796587,"Lon":-96.5506,"Lat":28.6651},"370":{"County":"Calhoun","State":"WV","Zipcode":25234,"Name":"Arnoldsburg","Max_temp":5.84,"Min_temp":1.21,"Description":"overcast clouds","Feels_like":1.14,"Sunrise":1637756242,"Sunset":1637791549,"Lon":-81.1551,"Lat":38.8227},"371":{"County":"Callahan","State":"TX","Zipcode":79504,"Name":"Baird","Max_temp":22.1,"Min_temp":18.88,"Description":"overcast clouds","Feels_like":19.61,"Sunrise":1637759729,"Sunset":1637796811,"Lon":-99.3777,"Lat":32.3916},"372":{"County":"Callaway","State":"MO","Zipcode":63388,"Name":"Williamsburg","Max_temp":16.53,"Min_temp":14.56,"Description":"overcast clouds","Feels_like":14.9,"Sunrise":1637758801,"Sunset":1637794086,"Lon":-91.7689,"Lat":38.8874},"373":{"County":"Calloway","State":"KY","Zipcode":42020,"Name":"Almo","Max_temp":13.83,"Min_temp":11.23,"Description":"broken clouds","Feels_like":11.37,"Sunrise":1637757645,"Sunset":1637793574,"Lon":-88.2929,"Lat":36.6923},"374":{"County":"Calumet","State":"WI","Zipcode":53014,"Name":"Chilton","Max_temp":7.81,"Min_temp":3.21,"Description":"overcast clouds","Feels_like":2.68,"Sunrise":1637758789,"Sunset":1637792377,"Lon":-88.1827,"Lat":44.0242},"375":{"County":"Calvert","State":"MD","Zipcode":20615,"Name":"Broomes Island","Max_temp":7.0,"Min_temp":0.03,"Description":"clear sky","Feels_like":2.53,"Sunrise":1637755075,"Sunset":1637790505,"Lon":-76.5478,"Lat":38.418},"376":{"County":"Camas","State":"ID","Zipcode":83327,"Name":"Fairfield","Max_temp":-0.17,"Min_temp":-12.31,"Description":"clear sky","Feels_like":-16.35,"Sunrise":1637765063,"Sunset":1637798877,"Lon":-114.7908,"Lat":43.3675},"377":{"County":"Cambria","State":"PA","Zipcode":15714,"Name":"Northern Cambria","Max_temp":4.58,"Min_temp":-1.91,"Description":"overcast clouds","Feels_like":0.46,"Sunrise":1637755962,"Sunset":1637790695,"Lon":-78.792,"Lat":40.6661},"378":{"County":"Camden","State":"GA","Zipcode":31548,"Name":"Kingsland","Max_temp":15.99,"Min_temp":10.54,"Description":"clear sky","Feels_like":12.33,"Sunrise":1637755287,"Sunset":1637792770,"Lon":-81.7075,"Lat":30.7977},"379":{"County":"Camden","State":"MO","Zipcode":65020,"Name":"Camdenton","Max_temp":17.68,"Min_temp":15.51,"Description":"overcast clouds","Feels_like":16.54,"Sunrise":1637758911,"Sunset":1637794455,"Lon":-92.7677,"Lat":38.0185},"380":{"County":"Camden","State":"NC","Zipcode":27921,"Name":"Camden","Max_temp":6.1,"Min_temp":0.02,"Description":"clear sky","Feels_like":2.08,"Sunrise":1637754676,"Sunset":1637790712,"Lon":-76.15,"Lat":36.325},"381":{"County":"Camden","State":"NJ","Zipcode":8002,"Name":"Cherry Hill","Max_temp":5.49,"Min_temp":-0.09,"Description":"clear sky","Feels_like":3.33,"Sunrise":1637754939,"Sunset":1637789906,"Lon":-75.0175,"Lat":39.9308},"382":{"County":"Cameron","State":"PA","Zipcode":15832,"Name":"Driftwood","Max_temp":5.47,"Min_temp":-2.09,"Description":"overcast clouds","Feels_like":1.52,"Sunrise":1637755926,"Sunset":1637790429,"Lon":-78.1632,"Lat":41.3764},"383":{"County":"Cameron","State":"TX","Zipcode":78520,"Name":"Brownsville","Max_temp":25.06,"Min_temp":24.38,"Description":"broken clouds","Feels_like":25.33,"Sunrise":1637758516,"Sunset":1637797131,"Lon":-97.5174,"Lat":25.9337},"384":{"County":"Cameron","State":"LA","Zipcode":70631,"Name":"Cameron","Max_temp":21.0,"Min_temp":18.9,"Description":"broken clouds","Feels_like":19.7,"Sunrise":1637757982,"Sunset":1637795707,"Lon":-93.438,"Lat":29.7911},"385":{"County":"Camp","State":"TX","Zipcode":75451,"Name":"Leesburg","Max_temp":22.05,"Min_temp":19.93,"Description":"overcast clouds","Feels_like":20.9,"Sunrise":1637758779,"Sunset":1637795711,"Lon":-95.1079,"Lat":32.9763},"386":{"County":"Campbell","State":"KY","Zipcode":41001,"Name":"Alexandria","Max_temp":10.68,"Min_temp":8.14,"Description":"clear sky","Feels_like":8.78,"Sunrise":1637757038,"Sunset":1637792308,"Lon":-84.3943,"Lat":38.9406},"387":{"County":"Campbell","State":"SD","Zipcode":57632,"Name":"Herreid","Max_temp":-6.02,"Min_temp":-7.84,"Description":"overcast clouds","Feels_like":-13.47,"Sunrise":1637761980,"Sunset":1637794882,"Lon":-100.049,"Lat":45.8452},"388":{"County":"Campbell","State":"TN","Zipcode":37714,"Name":"Caryville","Max_temp":8.81,"Min_temp":1.8,"Description":"clear sky","Feels_like":3.53,"Sunrise":1637756607,"Sunset":1637792648,"Lon":-84.203,"Lat":36.3028},"389":{"County":"Campbell","State":"VA","Zipcode":24517,"Name":"Altavista","Max_temp":6.31,"Min_temp":-0.19,"Description":"broken clouds","Feels_like":2.09,"Sunrise":1637755544,"Sunset":1637791353,"Lon":-79.2911,"Lat":37.1222},"390":{"County":"Campbell","State":"WY","Zipcode":82716,"Name":"Gillette","Max_temp":-3.38,"Min_temp":-5.68,"Description":"broken clouds","Feels_like":-4.8,"Sunrise":1637762995,"Sunset":1637796484,"Lon":-105.4974,"Lat":44.282},"391":{"County":"Camuy","State":"PR","Zipcode":627,"Name":"Camuy","Max_temp":27.29,"Min_temp":23.36,"Description":"scattered clouds","Feels_like":26.13,"Sunrise":1637750368,"Sunset":1637790551,"Lon":-66.84,"Lat":18.48},"392":{"County":"Canadian","State":"OK","Zipcode":73014,"Name":"Calumet","Max_temp":18.61,"Min_temp":15.86,"Description":"overcast clouds","Feels_like":16.4,"Sunrise":1637759852,"Sunset":1637796099,"Lon":-98.1512,"Lat":35.5476},"393":{"County":"Candler","State":"GA","Zipcode":30439,"Name":"Metter","Max_temp":9.18,"Min_temp":3.92,"Description":"clear sky","Feels_like":3.36,"Sunrise":1637755572,"Sunset":1637792654,"Lon":-82.0607,"Lat":32.401},"394":{"County":"Cannon","State":"TN","Zipcode":37016,"Name":"Auburntown","Max_temp":11.71,"Min_temp":8.18,"Description":"overcast clouds","Feels_like":7.79,"Sunrise":1637757014,"Sunset":1637793157,"Lon":-86.1126,"Lat":35.9338},"395":{"County":"Canvanas","State":"PR","Zipcode":729,"Name":"Canovanas","Max_temp":26.14,"Min_temp":23.73,"Description":"scattered clouds","Feels_like":25.91,"Sunrise":1637750131,"Sunset":1637790337,"Lon":-65.9,"Lat":18.37},"396":{"County":"Canyon","State":"ID","Zipcode":83605,"Name":"Caldwell","Max_temp":6.68,"Min_temp":1.12,"Description":"clear sky","Feels_like":4.54,"Sunrise":1637765574,"Sunset":1637799283,"Lon":-116.7,"Lat":43.6627},"397":{"County":"Cape","State":"MO","Zipcode":63701,"Name":"Cape Girardeau","Max_temp":14.95,"Min_temp":13.4,"Description":"broken clouds","Feels_like":12.46,"Sunrise":1637758035,"Sunset":1637793785,"Lon":-89.5459,"Lat":37.3169},"398":{"County":"Cape","State":"NJ","Zipcode":8202,"Name":"Avalon","Max_temp":6.66,"Min_temp":0.0,"Description":"clear sky","Feels_like":1.57,"Sunrise":1637754740,"Sunset":1637789965,"Lon":-74.7262,"Lat":39.0951},"399":{"County":"Carbon","State":"MT","Zipcode":59007,"Name":"Bearcreek","Max_temp":0.63,"Min_temp":-3.2,"Description":"broken clouds","Feels_like":-0.83,"Sunrise":1637764037,"Sunset":1637797198,"Lon":-109.1571,"Lat":45.1608},"400":{"County":"Carbon","State":"PA","Zipcode":18030,"Name":"Bowmanstown","Max_temp":3.74,"Min_temp":-1.24,"Description":"clear sky","Feels_like":1.93,"Sunrise":1637755232,"Sunset":1637789922,"Lon":-75.6614,"Lat":40.8011},"401":{"County":"Carbon","State":"UT","Zipcode":84501,"Name":"Price","Max_temp":3.57,"Min_temp":0.76,"Description":"clear sky","Feels_like":-0.89,"Sunrise":1637763484,"Sunset":1637798544,"Lon":-110.8081,"Lat":39.602},"402":{"County":"Carbon","State":"WY","Zipcode":82301,"Name":"Rawlins","Max_temp":-1.77,"Min_temp":-3.04,"Description":"overcast clouds","Feels_like":-2.99,"Sunrise":1637762978,"Sunset":1637797334,"Lon":-107.2349,"Lat":41.7951},"403":{"County":"Caribou","State":"ID","Zipcode":83217,"Name":"Bancroft","Max_temp":-1.0,"Min_temp":-3.24,"Description":"scattered clouds","Feels_like":-5.41,"Sunrise":1637764242,"Sunset":1637798283,"Lon":-111.8429,"Lat":42.7205},"404":{"County":"Carlisle","State":"KY","Zipcode":42021,"Name":"Arlington","Max_temp":14.83,"Min_temp":12.41,"Description":"overcast clouds","Feels_like":12.31,"Sunrise":1637757831,"Sunset":1637793733,"Lon":-89.0128,"Lat":36.7903},"405":{"County":"Carlton","State":"MN","Zipcode":55707,"Name":"Barnum","Max_temp":-0.09,"Min_temp":-1.53,"Description":"overcast clouds","Feels_like":-6.69,"Sunrise":1637760331,"Sunset":1637792970,"Lon":-92.6292,"Lat":46.5196},"406":{"County":"Carolina","State":"PR","Zipcode":979,"Name":"Carolina","Max_temp":26.83,"Min_temp":23.65,"Description":"scattered clouds","Feels_like":26.23,"Sunrise":1637750169,"Sunset":1637790361,"Lon":-66.03,"Lat":18.44},"407":{"County":"Caroline","State":"MD","Zipcode":21629,"Name":"Denton","Max_temp":4.43,"Min_temp":0.53,"Description":"broken clouds","Feels_like":-0.15,"Sunrise":1637754970,"Sunset":1637790267,"Lon":-75.8357,"Lat":38.8595},"408":{"County":"Caroline","State":"VA","Zipcode":22427,"Name":"Bowling Green","Max_temp":5.59,"Min_temp":-0.29,"Description":"scattered clouds","Feels_like":0.09,"Sunrise":1637755167,"Sunset":1637790716,"Lon":-77.1802,"Lat":38.0137},"409":{"County":"Carroll","State":"AR","Zipcode":72611,"Name":"Alpena","Max_temp":17.05,"Min_temp":13.04,"Description":"overcast clouds","Feels_like":15.04,"Sunrise":1637758787,"Sunset":1637794826,"Lon":-93.2792,"Lat":36.2998},"410":{"County":"Carroll","State":"GA","Zipcode":30108,"Name":"Bowdon","Max_temp":8.95,"Min_temp":3.75,"Description":"clear sky","Feels_like":5.72,"Sunrise":1637756485,"Sunset":1637793274,"Lon":-85.2533,"Lat":33.5373},"411":{"County":"Carroll","State":"IA","Zipcode":50058,"Name":"Coon Rapids","Max_temp":4.99,"Min_temp":0.71,"Description":"overcast clouds","Feels_like":-4.19,"Sunrise":1637759979,"Sunset":1637794306,"Lon":-94.68,"Lat":41.894},"412":{"County":"Carroll","State":"IL","Zipcode":61014,"Name":"Chadwick","Max_temp":11.4,"Min_temp":7.49,"Description":"clear sky","Feels_like":9.35,"Sunrise":1637758847,"Sunset":1637793141,"Lon":-89.8963,"Lat":41.9962},"413":{"County":"Carroll","State":"IN","Zipcode":46913,"Name":"Bringhurst","Max_temp":11.47,"Min_temp":6.89,"Description":"overcast clouds","Feels_like":5.99,"Sunrise":1637757794,"Sunset":1637792573,"Lon":-86.5204,"Lat":40.5163},"414":{"County":"Carroll","State":"KY","Zipcode":41008,"Name":"Carrollton","Max_temp":11.59,"Min_temp":9.27,"Description":"overcast clouds","Feels_like":9.63,"Sunrise":1637757184,"Sunset":1637792536,"Lon":-85.173,"Lat":38.6696},"415":{"County":"Carroll","State":"MD","Zipcode":21048,"Name":"Finksburg","Max_temp":5.16,"Min_temp":-1.13,"Description":"clear sky","Feels_like":1.93,"Sunrise":1637755326,"Sunset":1637790427,"Lon":-76.9101,"Lat":39.4991},"416":{"County":"Carroll","State":"MO","Zipcode":64622,"Name":"Bogard","Max_temp":15.32,"Min_temp":12.5,"Description":"overcast clouds","Feels_like":13.57,"Sunrise":1637759320,"Sunset":1637794417,"Lon":-93.5374,"Lat":39.4994},"417":{"County":"Carroll","State":"MS","Zipcode":38917,"Name":"Carrollton","Max_temp":14.83,"Min_temp":13.76,"Description":"clear sky","Feels_like":13.62,"Sunrise":1637757611,"Sunset":1637794403,"Lon":-89.9506,"Lat":33.5208},"418":{"County":"Carroll","State":"NH","Zipcode":3227,"Name":"Center Sandwich","Max_temp":1.55,"Min_temp":-4.44,"Description":"scattered clouds","Feels_like":-0.79,"Sunrise":1637754732,"Sunset":1637788400,"Lon":-71.4506,"Lat":43.8162},"419":{"County":"Carroll","State":"OH","Zipcode":44607,"Name":"Augusta","Max_temp":7.63,"Min_temp":2.39,"Description":"overcast clouds","Feels_like":2.28,"Sunrise":1637756501,"Sunset":1637791227,"Lon":-81.0219,"Lat":40.686},"420":{"County":"Carroll","State":"TN","Zipcode":38201,"Name":"Mc Kenzie","Max_temp":13.69,"Min_temp":11.69,"Description":"broken clouds","Feels_like":10.96,"Sunrise":1637757618,"Sunset":1637793706,"Lon":-88.5134,"Lat":36.1272},"421":{"County":"Carroll","State":"VA","Zipcode":24312,"Name":"Austinville","Max_temp":4.34,"Min_temp":-1.87,"Description":"clear sky","Feels_like":0.62,"Sunrise":1637755877,"Sunset":1637791772,"Lon":-80.8583,"Lat":36.8195},"422":{"County":"Carson","State":"NV","Zipcode":89701,"Name":"Carson City","Max_temp":8.71,"Min_temp":3.93,"Description":"clear sky","Feels_like":4.98,"Sunrise":1637765561,"Sunset":1637800758,"Lon":-119.7459,"Lat":39.1507},"423":{"County":"Carson","State":"TX","Zipcode":79080,"Name":"Skellytown","Max_temp":13.46,"Min_temp":11.02,"Description":"clear sky","Feels_like":10.11,"Sunrise":1637760580,"Sunset":1637796821,"Lon":-101.1721,"Lat":35.5685},"424":{"County":"Carter","State":"KY","Zipcode":41143,"Name":"Grayson","Max_temp":10.69,"Min_temp":1.01,"Description":"overcast clouds","Feels_like":4.54,"Sunrise":1637756600,"Sunset":1637792053,"Lon":-82.9485,"Lat":38.3326},"425":{"County":"Carter","State":"MO","Zipcode":63937,"Name":"Ellsinore","Max_temp":13.96,"Min_temp":12.96,"Description":"overcast clouds","Feels_like":11.85,"Sunrise":1637758270,"Sunset":1637794127,"Lon":-90.7485,"Lat":36.9453},"426":{"County":"Carter","State":"MT","Zipcode":59311,"Name":"Alzada","Max_temp":-4.37,"Min_temp":-4.39,"Description":"broken clouds","Feels_like":-10.33,"Sunrise":1637762860,"Sunset":1637796025,"Lon":-104.2617,"Lat":45.1562},"427":{"County":"Carter","State":"OK","Zipcode":73401,"Name":"Ardmore","Max_temp":20.69,"Min_temp":18.86,"Description":"broken clouds","Feels_like":19.99,"Sunrise":1637759431,"Sunset":1637796054,"Lon":-97.1792,"Lat":34.1566},"428":{"County":"Carter","State":"TN","Zipcode":37643,"Name":"Elizabethton","Max_temp":5.48,"Min_temp":0.18,"Description":"clear sky","Feels_like":2.77,"Sunrise":1637756132,"Sunset":1637792161,"Lon":-82.2015,"Lat":36.3445},"429":{"County":"Carteret","State":"NC","Zipcode":28511,"Name":"Atlantic","Max_temp":7.75,"Min_temp":1.99,"Description":"clear sky","Feels_like":3.1,"Sunrise":1637754527,"Sunset":1637790959,"Lon":-76.3521,"Lat":34.8888},"430":{"County":"Carver","State":"MN","Zipcode":55315,"Name":"Carver","Max_temp":2.52,"Min_temp":-0.29,"Description":"overcast clouds","Feels_like":-4.85,"Sunrise":1637760238,"Sunset":1637793571,"Lon":-93.6879,"Lat":44.7169},"431":{"County":"Cascade","State":"MT","Zipcode":59401,"Name":"Great Falls","Max_temp":0.51,"Min_temp":-1.88,"Description":"clear sky","Feels_like":-7.51,"Sunrise":1637765012,"Sunset":1637797240,"Lon":-111.2734,"Lat":47.5098},"432":{"County":"Casey","State":"KY","Zipcode":42516,"Name":"Bethelridge","Max_temp":9.61,"Min_temp":6.75,"Description":"overcast clouds","Feels_like":6.16,"Sunrise":1637756873,"Sunset":1637792648,"Lon":-84.7583,"Lat":37.2337},"433":{"County":"Cass","State":"IA","Zipcode":50020,"Name":"Anita","Max_temp":7.02,"Min_temp":0.44,"Description":"overcast clouds","Feels_like":-0.9,"Sunrise":1637759929,"Sunset":1637794403,"Lon":-94.7794,"Lat":41.45},"434":{"County":"Cass","State":"IL","Zipcode":62611,"Name":"Arenzville","Max_temp":15.19,"Min_temp":11.68,"Description":"overcast clouds","Feels_like":12.14,"Sunrise":1637758619,"Sunset":1637793593,"Lon":-90.3636,"Lat":39.8979},"435":{"County":"Cass","State":"IN","Zipcode":46932,"Name":"Galveston","Max_temp":11.34,"Min_temp":6.75,"Description":"broken clouds","Feels_like":6.92,"Sunrise":1637757728,"Sunset":1637792485,"Lon":-86.1972,"Lat":40.5862},"436":{"County":"Cass","State":"MI","Zipcode":49031,"Name":"Cassopolis","Max_temp":11.21,"Min_temp":7.17,"Description":"clear sky","Feels_like":7.87,"Sunrise":1637757893,"Sunset":1637792221,"Lon":-85.9923,"Lat":41.8968},"437":{"County":"Cass","State":"MN","Zipcode":56435,"Name":"Backus","Max_temp":-2.19,"Min_temp":-9.05,"Description":"light snow","Feels_like":-13.11,"Sunrise":1637760826,"Sunset":1637793323,"Lon":-94.3959,"Lat":46.8699},"438":{"County":"Cass","State":"MO","Zipcode":64012,"Name":"Belton","Max_temp":15.11,"Min_temp":11.19,"Description":"broken clouds","Feels_like":12.89,"Sunrise":1637759454,"Sunset":1637794760,"Lon":-94.5328,"Lat":38.8161},"439":{"County":"Cass","State":"ND","Zipcode":58004,"Name":"Amenia","Max_temp":-10.1,"Min_temp":-11.23,"Description":"overcast clouds","Feels_like":-17.98,"Sunrise":1637761531,"Sunset":1637793966,"Lon":-97.2048,"Lat":47.0194},"440":{"County":"Cass","State":"NE","Zipcode":68016,"Name":"Cedar Creek","Max_temp":4.31,"Min_temp":2.4,"Description":"overcast clouds","Feels_like":-1.13,"Sunrise":1637760181,"Sunset":1637794788,"Lon":-96.1044,"Lat":41.0425},"441":{"County":"Cass","State":"TX","Zipcode":75551,"Name":"Atlanta","Max_temp":21.23,"Min_temp":19.08,"Description":"overcast clouds","Feels_like":20.2,"Sunrise":1637758569,"Sunset":1637795468,"Lon":-94.1646,"Lat":33.109},"442":{"County":"Cassia","State":"ID","Zipcode":83311,"Name":"Albion","Max_temp":0.62,"Min_temp":0.48,"Description":"few clouds","Feels_like":-2.21,"Sunrise":1637764597,"Sunset":1637798751,"Lon":-113.5567,"Lat":42.3896},"443":{"County":"Castro","State":"TX","Zipcode":79085,"Name":"Summerfield","Max_temp":12.0,"Min_temp":10.27,"Description":"broken clouds","Feels_like":8.99,"Sunrise":1637760789,"Sunset":1637797254,"Lon":-102.5064,"Lat":34.7437},"444":{"County":"Caswell","State":"NC","Zipcode":27212,"Name":"Blanch","Max_temp":5.22,"Min_temp":0.15,"Description":"clear sky","Feels_like":2.73,"Sunrise":1637755447,"Sunset":1637791442,"Lon":-79.2755,"Lat":36.4664},"445":{"County":"Catahoula","State":"LA","Zipcode":71340,"Name":"Harrisonburg","Max_temp":17.48,"Min_temp":16.44,"Description":"broken clouds","Feels_like":17.18,"Sunrise":1637757835,"Sunset":1637795073,"Lon":-91.8133,"Lat":31.7779},